[
  {
    "id": "ha-long-bay-1",
    "name": "Massage Mai Sheng ÏµúÍ≥†Ïùò - ÎßàÏÇ¨ÏßÄ - ÊúÄÂ•ΩÊåâÊë©",
    "address": "440 H·∫° Long, B√£i Ch√°y, H·∫° Long, Qu·∫£ng Ninh, Vietnam",
    "city": "Ha Long Bay",
    "phone": "+84 369 333 999",
    "website": "https://www.facebook.com/profile.php?id=100084445585912",
    "rating": 4.5,
    "reviewCount": 239,
    "category": "Massage spa",
    "location": {
      "lat": 20.9545807,
      "lng": 107.0243413
    },
    "scrapedAt": "2025-08-07T07:39:37.851Z",
    "district": "B√£i Ch√°y",
    "districtOrWard": "B√£i Ch√°y",
    "combinedScore": 4.6499999999999995,
    "processedAt": "2025-08-07T11:12:01.195Z",
    "dataQuality": {
      "hasPhone": true,
      "hasWebsite": true,
      "hasRating": true,
      "hasDistrict": true,
      "hasLocation": true
    }
  },
  {
    "id": "ha-long-bay-2",
    "name": "KELLY MODERN SPA",
    "address": "22 Cao ƒê·∫°t, B√£i Ch√°y, H·∫° Long, Qu·∫£ng Ninh, Vietnam",
    "city": "Ha Long Bay",
    "phone": "+84 978 612 966",
    "website": null,
    "rating": 4.5,
    "reviewCount": 64,
    "category": "Hot bedstone spa",
    "location": {
      "lat": 20.9703987,
      "lng": 107.0197693
    },
    "scrapedAt": "2025-08-07T07:39:37.851Z",
    "district": "B√£i Ch√°y",
    "districtOrWard": "B√£i Ch√°y",
    "combinedScore": 4.11,
    "processedAt": "2025-08-07T11:12:01.195Z",
    "dataQuality": {
      "hasPhone": true,
      "hasWebsite": false,
      "hasRating": true,
      "hasDistrict": true,
      "hasLocation": true
    }
  },
  {
    "id": "ha-long-bay-3",
    "name": "Em Xinh Massage and Spa",
    "address": "328 ƒê. Ti√™n √îng, B√£i Ch√°y, H·∫° Long, Qu·∫£ng Ninh, Vietnam",
    "city": "Ha Long Bay",
    "phone": "+84 396 664 529",
    "website": "https://www.facebook.com/share/19dn18NQGv/?mibextid=wwXIfr",
    "rating": 5,
    "reviewCount": 7,
    "category": "Massage spa",
    "location": {
      "lat": 20.9519221,
      "lng": 107.0263803
    },
    "scrapedAt": "2025-08-07T07:39:37.851Z",
    "district": "B√£i Ch√°y",
    "districtOrWard": "B√£i Ch√°y",
    "combinedScore": 3.605,
    "processedAt": "2025-08-07T11:12:01.195Z",
    "dataQuality": {
      "hasPhone": true,
      "hasWebsite": true,
      "hasRating": true,
      "hasDistrict": true,
      "hasLocation": true
    }
  },
  {
    "id": "ha-long-bay-4",
    "name": "SEN V√ÄNG massage & spa",
    "address": "S·ªë 26 ƒê∆∞·ªùng Phan Chu Trinh, B√£i Ch√°y, H·∫° Long, Qu·∫£ng Ninh, Vietnam",
    "city": "Ha Long Bay",
    "phone": "+84 203 3693 999",
    "website": "http://senvanghalong.com/",
    "rating": 4.4,
    "reviewCount": 65,
    "category": "Spa",
    "location": {
      "lat": 20.9596181,
      "lng": 107.0190009
    },
    "scrapedAt": "2025-08-07T07:39:37.851Z",
    "district": "B√£i Ch√°y",
    "districtOrWard": "B√£i Ch√°y",
    "combinedScore": 4.055,
    "processedAt": "2025-08-07T11:12:01.195Z",
    "dataQuality": {
      "hasPhone": true,
      "hasWebsite": true,
      "hasRating": true,
      "hasDistrict": true,
      "hasLocation": true
    }
  },
  {
    "id": "ha-long-bay-5",
    "name": "Hidden Lagoon Spa",
    "address": "Marina Urban Area, Peninsula 2, H·∫° Long, Qu·∫£ng Ninh 200000, Vietnam",
    "city": "Ha Long Bay",
    "phone": "+84 985 668 616",
    "website": "https://www.ihg.com/intercontinental/hotels/gb/en/ha-long-bay/hphhl/hoteldetail/amenities?fromRedirect=true&qSrt=sBR&qSlH=HPHHL&qCiD=13&qCiMy=072025&qCoD=15&qCoMy=072025&qAAR=IKHD3&qRtP=IKHD3&setPMCookies=true&qSHBrC=IC&qDest=Peninsula%202,%20Halong%20Marina%20Urban%20Area,%20Hoang%20Quoc%20Viet,%20Ha%20Long%20City,%20VN&srb_u=1",
    "rating": null,
    "reviewCount": 0,
    "category": "Spa",
    "location": {
      "lat": 20.9583215,
      "lng": 107.0594327
    },
    "scrapedAt": "2025-08-07T07:39:37.851Z",
    "district": "H·∫° Long",
    "districtOrWard": "H·∫° Long",
    "combinedScore": 0,
    "processedAt": "2025-08-07T11:12:01.195Z",
    "dataQuality": {
      "hasPhone": true,
      "hasWebsite": true,
      "hasRating": false,
      "hasDistrict": true,
      "hasLocation": true
    }
  },
  {
    "id": "ha-long-bay-6",
    "name": "Spa Thanh Nh√†n",
    "address": "3 Tr·∫ßn Quang Di·ªáu, B√£i Ch√°y, H·∫° Long, Qu·∫£ng Ninh, Vietnam",
    "city": "Ha Long Bay",
    "phone": "+84 911 486 336",
    "website": null,
    "rating": 5,
    "reviewCount": 2,
    "category": "Spa",
    "location": {
      "lat": 20.9525518,
      "lng": 107.025591
    },
    "scrapedAt": "2025-08-07T07:39:37.851Z",
    "district": "B√£i Ch√°y",
    "districtOrWard": "B√£i Ch√°y",
    "combinedScore": 3.53,
    "processedAt": "2025-08-07T11:12:01.195Z",
    "dataQuality": {
      "hasPhone": true,
      "hasWebsite": false,
      "hasRating": true,
      "hasDistrict": true,
      "hasLocation": true
    }
  },
  {
    "id": "ha-long-bay-7",
    "name": "T√¢m Spa",
    "address": "548 H·∫° Long, B√£i Ch√°y, H·∫° Long, Qu·∫£ng Ninh 01100, Vietnam",
    "city": "Ha Long Bay",
    "phone": "+84 348 263 868",
    "website": null,
    "rating": 5,
    "reviewCount": 2,
    "category": "Massage spa",
    "location": {
      "lat": 20.9569449,
      "lng": 107.0233221
    },
    "scrapedAt": "2025-08-07T07:39:37.851Z",
    "district": "B√£i Ch√°y",
    "districtOrWard": "B√£i Ch√°y",
    "combinedScore": 3.53,
    "processedAt": "2025-08-07T11:12:01.195Z",
    "dataQuality": {
      "hasPhone": true,
      "hasWebsite": false,
      "hasRating": true,
      "hasDistrict": true,
      "hasLocation": true
    }
  },
  {
    "id": "ha-long-bay-8",
    "name": "TRE SPA H·∫† LONG",
    "address": "S·ªë 8 khu ƒë√¥ th·ªã B2, H·ªìng H·∫£i, H·∫° Long, Qu·∫£ng Ninh, Vietnam",
    "city": "Ha Long Bay",
    "phone": "+84 335 484 898",
    "website": null,
    "rating": 5,
    "reviewCount": 135,
    "category": "Health spa",
    "location": {
      "lat": 20.9501601,
      "lng": 107.1030192
    },
    "scrapedAt": "2025-08-07T07:39:37.851Z",
    "district": "H·ªìng H·∫£i",
    "districtOrWard": "H·ªìng H·∫£i",
    "combinedScore": 5,
    "processedAt": "2025-08-07T11:12:01.195Z",
    "dataQuality": {
      "hasPhone": true,
      "hasWebsite": false,
      "hasRating": true,
      "hasDistrict": true,
      "hasLocation": true
    }
  },
  {
    "id": "ha-long-bay-9",
    "name": "Kim Th∆∞·ª£ng An Beauty Spa",
    "address": "23, M·ªπ Gia 1/1 B·∫øn ƒêoan, Khu ƒë√¥ th·ªã Vinhomes, H·∫° Long, Qu·∫£ng Ninh, Vietnam",
    "city": "Ha Long Bay",
    "phone": "+84 328 681 986",
    "website": null,
    "rating": 5,
    "reviewCount": 20,
    "category": "Spa",
    "location": {
      "lat": 20.9481183,
      "lng": 107.0729788
    },
    "scrapedAt": "2025-08-07T07:39:37.851Z",
    "district": "H·∫° Long",
    "districtOrWard": "H·∫° Long",
    "combinedScore": 3.8,
    "processedAt": "2025-08-07T11:12:01.195Z",
    "dataQuality": {
      "hasPhone": true,
      "hasWebsite": false,
      "hasRating": true,
      "hasDistrict": true,
      "hasLocation": true
    }
  },
  {
    "id": "ha-long-bay-10",
    "name": "Uy√™n Linh Spa. C√°i DƒÉm",
    "address": "Tr·∫ßn Kh√°nh D∆∞, B√£i Ch√°y, H·∫° Long, Qu·∫£ng Ninh, Vietnam",
    "city": "Ha Long Bay",
    "phone": "+84 349 383 186",
    "website": "https://www.facebook.com/uchida.bn?mibextid=ZbWKwL",
    "rating": 5,
    "reviewCount": 27,
    "category": "Facial spa",
    "location": {
      "lat": 20.9555555,
      "lng": 107.025626
    },
    "scrapedAt": "2025-08-07T07:39:37.851Z",
    "district": "B√£i Ch√°y",
    "districtOrWard": "B√£i Ch√°y",
    "combinedScore": 3.9049999999999994,
    "processedAt": "2025-08-07T11:12:01.195Z",
    "dataQuality": {
      "hasPhone": true,
      "hasWebsite": true,
      "hasRating": true,
      "hasDistrict": true,
      "hasLocation": true
    }
  },
  {
    "id": "ha-long-bay-11",
    "name": "L√†ng Sen Spa",
    "address": "22 Nguy·ªÖn ƒê√¨nh Chi·ªÉu, Tr·∫ßn H∆∞ng ƒê·∫°o, H·∫° Long, Qu·∫£ng Ninh, Vietnam",
    "city": "Ha Long Bay",
    "phone": null,
    "website": null,
    "rating": 4.7,
    "reviewCount": 14,
    "category": "Massage spa",
    "location": {
      "lat": 20.9603518,
      "lng": 107.0758487
    },
    "scrapedAt": "2025-08-07T07:39:37.851Z",
    "district": "H·∫° Long",
    "districtOrWard": "H·∫° Long",
    "combinedScore": 3.5000000000000004,
    "processedAt": "2025-08-07T11:12:01.195Z",
    "dataQuality": {
      "hasPhone": false,
      "hasWebsite": false,
      "hasRating": true,
      "hasDistrict": true,
      "hasLocation": true
    }
  },
  {
    "id": "ha-long-bay-12",
    "name": "Huy·ªÅn Trang Spa",
    "address": "39A t·ªï 4, khu 5B, H·∫° Long, Qu·∫£ng Ninh 200000, Vietnam",
    "city": "Ha Long Bay",
    "phone": "+84 981 423 900",
    "website": null,
    "rating": 5,
    "reviewCount": 1,
    "category": "Health spa",
    "location": {
      "lat": 20.9530069,
      "lng": 107.0248851
    },
    "scrapedAt": "2025-08-07T07:39:37.851Z",
    "district": "H·∫° Long",
    "districtOrWard": "H·∫° Long",
    "combinedScore": 3.5149999999999997,
    "processedAt": "2025-08-07T11:12:01.195Z",
    "dataQuality": {
      "hasPhone": true,
      "hasWebsite": false,
      "hasRating": true,
      "hasDistrict": true,
      "hasLocation": true
    }
  },
  {
    "id": "ha-long-bay-13",
    "name": "Sky Spa",
    "address": "4 ƒê. Ho√†ng Qu·ªëc Vi·ªát, H√πng Th·∫Øng, H·∫° Long, Qu·∫£ng Ninh, Vietnam",
    "city": "Ha Long Bay",
    "phone": "+84 932 885 999",
    "website": null,
    "rating": 3.3,
    "reviewCount": 7,
    "category": "Massage spa",
    "location": {
      "lat": 20.9582394,
      "lng": 107.0078976
    },
    "scrapedAt": "2025-08-07T07:39:37.851Z",
    "district": "H√πng Th·∫Øng",
    "districtOrWard": "H√πng Th·∫Øng",
    "combinedScore": 2.4149999999999996,
    "processedAt": "2025-08-07T11:12:01.195Z",
    "dataQuality": {
      "hasPhone": true,
      "hasWebsite": false,
      "hasRating": true,
      "hasDistrict": true,
      "hasLocation": true
    }
  },
  {
    "id": "ha-long-bay-14",
    "name": "Thu H∆∞·ªùng Spa - Foot Massage",
    "address": "246 P. Nguy·ªÖn Th∆∞·ª£ng Hi·ªÅn, H·ªìng H√†, H·∫° Long, Qu·∫£ng Ninh, Vietnam",
    "city": "Ha Long Bay",
    "phone": "+84 908 212 212",
    "website": null,
    "rating": 4.6,
    "reviewCount": 129,
    "category": "Massage spa",
    "location": {
      "lat": 20.9393567,
      "lng": 107.1139752
    },
    "scrapedAt": "2025-08-07T07:39:37.851Z",
    "district": "H·∫° Long",
    "districtOrWard": "H·∫° Long",
    "combinedScore": 4.72,
    "processedAt": "2025-08-07T11:12:01.195Z",
    "dataQuality": {
      "hasPhone": true,
      "hasWebsite": false,
      "hasRating": true,
      "hasDistrict": true,
      "hasLocation": true
    }
  },
  {
    "id": "ha-long-bay-15",
    "name": "Spa Khanh Luy·∫øn",
    "address": "236 Gi·∫øng ƒê√°y, H·∫° Long, Qu·∫£ng Ninh 01000, Vietnam",
    "city": "Ha Long Bay",
    "phone": "+84 936 738 798",
    "website": null,
    "rating": 5,
    "reviewCount": 3,
    "category": "Spa",
    "location": {
      "lat": 20.9773455,
      "lng": 107.0143105
    },
    "scrapedAt": "2025-08-07T07:39:37.851Z",
    "district": "H·∫° Long",
    "districtOrWard": "H·∫° Long",
    "combinedScore": 3.545,
    "processedAt": "2025-08-07T11:12:01.195Z",
    "dataQuality": {
      "hasPhone": true,
      "hasWebsite": false,
      "hasRating": true,
      "hasDistrict": true,
      "hasLocation": true
    }
  },
  {
    "id": "ha-long-bay-16",
    "name": "ƒê√†o Nhƒ© Th√†nh ƒê√¥ - B√£i Ch√°y | Massage Spa | ÎßàÏÇ¨ÏßÄ Ïä§Ìåå | ÊåâÊë©Ê∞¥Áñó",
    "address": "Khu 2 H·∫° Long, B√£i Ch√°y, H·∫° Long, Qu·∫£ng Ninh 011000, Vietnam",
    "city": "Ha Long Bay",
    "phone": "+84 965 926 666",
    "website": null,
    "rating": 4.3,
    "reviewCount": 36,
    "category": "Massage spa",
    "location": {
      "lat": 20.9555609,
      "lng": 107.0488085
    },
    "scrapedAt": "2025-08-07T07:39:37.851Z",
    "district": "B√£i Ch√°y",
    "districtOrWard": "B√£i Ch√°y",
    "combinedScore": 3.55,
    "processedAt": "2025-08-07T11:12:01.195Z",
    "dataQuality": {
      "hasPhone": true,
      "hasWebsite": false,
      "hasRating": true,
      "hasDistrict": true,
      "hasLocation": true
    }
  },
  {
    "id": "ha-long-bay-17",
    "name": "H√† N·ªôi SPA FOOT MASSAGE",
    "address": "H√πng Th·∫Øng, Ha Long, Qu·∫£ng Ninh, Vietnam",
    "city": "Ha Long Bay",
    "phone": null,
    "website": null,
    "rating": 4,
    "reviewCount": 69,
    "category": "Foot massage parlor",
    "location": {
      "lat": 20.9556345,
      "lng": 107.0011222
    },
    "scrapedAt": "2025-08-07T07:39:37.851Z",
    "district": "H√πng Th·∫Øng",
    "districtOrWard": "H√πng Th·∫Øng",
    "combinedScore": 3.8349999999999995,
    "processedAt": "2025-08-07T11:12:01.195Z",
    "dataQuality": {
      "hasPhone": false,
      "hasWebsite": false,
      "hasRating": true,
      "hasDistrict": true,
      "hasLocation": true
    }
  },
  {
    "id": "ha-long-bay-18",
    "name": "OANH BEAUTY & SPA",
    "address": "ƒêo√†n K·∫øt, H·ªìng H·∫£i, H·∫° Long, Qu·∫£ng Ninh, Vietnam",
    "city": "Ha Long Bay",
    "phone": "+84 911 393 003",
    "website": "https://www.facebook.com/profile.php?id=100089907226866",
    "rating": 5,
    "reviewCount": 23,
    "category": "Spa",
    "location": {
      "lat": 20.9497021,
      "lng": 107.1075529
    },
    "scrapedAt": "2025-08-07T07:39:37.851Z",
    "district": "H·ªìng H·∫£i",
    "districtOrWard": "H·ªìng H·∫£i",
    "combinedScore": 3.8449999999999998,
    "processedAt": "2025-08-07T11:12:01.195Z",
    "dataQuality": {
      "hasPhone": true,
      "hasWebsite": true,
      "hasRating": true,
      "hasDistrict": true,
      "hasLocation": true
    }
  },
  {
    "id": "ha-long-bay-19",
    "name": "Spa Nature",
    "address": "X237+G56, H√πng Th·∫Øng, H·∫° Long, Qu·∫£ng Ninh, Vietnam",
    "city": "Ha Long Bay",
    "phone": null,
    "website": null,
    "rating": 3.2,
    "reviewCount": 12,
    "category": "Spa",
    "location": {
      "lat": 20.9537924,
      "lng": 107.0128907
    },
    "scrapedAt": "2025-08-07T07:39:37.851Z",
    "district": "H√πng Th·∫Øng",
    "districtOrWard": "H√πng Th·∫Øng",
    "combinedScore": 2.4199999999999995,
    "processedAt": "2025-08-07T11:12:01.195Z",
    "dataQuality": {
      "hasPhone": false,
      "hasWebsite": false,
      "hasRating": true,
      "hasDistrict": true,
      "hasLocation": true
    }
  },
  {
    "id": "ha-long-bay-20",
    "name": "HONGKONG MASSAGE NURU",
    "address": "H·∫° Long, P, H·∫° Long, Qu·∫£ng Ninh, Vietnam",
    "city": "Ha Long Bay",
    "phone": "+84 835 532 992",
    "website": null,
    "rating": 3.4,
    "reviewCount": 33,
    "category": "Massage spa",
    "location": {
      "lat": 20.9463896,
      "lng": 107.0309061
    },
    "scrapedAt": "2025-08-07T07:39:37.851Z",
    "district": "H·∫° Long",
    "districtOrWard": "H·∫° Long",
    "combinedScore": 2.875,
    "processedAt": "2025-08-07T11:12:01.195Z",
    "dataQuality": {
      "hasPhone": true,
      "hasWebsite": false,
      "hasRating": true,
      "hasDistrict": true,
      "hasLocation": true
    }
  },
  {
    "id": "ha-long-bay-21",
    "name": "MASSAGE FLOWERS",
    "address": "C319-C320, Khu Ph·ªë C·ªï, B√£i Ch√°y, H·∫° Long, Qu·∫£ng Ninh, Vietnam",
    "city": "Ha Long Bay",
    "phone": "+84 377 700 558",
    "website": "https://www.facebook.com/MassageFlowersHaLong?mibextid=ZbWKwL",
    "rating": 4.8,
    "reviewCount": 1320,
    "category": "Massage therapist",
    "location": {
      "lat": 20.9527709,
      "lng": 107.0452414
    },
    "scrapedAt": "2025-08-07T07:39:37.851Z",
    "district": "B√£i Ch√°y",
    "districtOrWard": "B√£i Ch√°y",
    "combinedScore": 4.859999999999999,
    "processedAt": "2025-08-07T11:12:01.195Z",
    "dataQuality": {
      "hasPhone": true,
      "hasWebsite": true,
      "hasRating": true,
      "hasDistrict": true,
      "hasLocation": true
    }
  },
  {
    "id": "ha-long-bay-22",
    "name": "Massage Lotus",
    "address": "l√¥ 10 Ph·ªë L∆∞ H∆∞∆°ng, B√£i Ch√°y, H·∫° Long, Qu·∫£ng Ninh, Vietnam",
    "city": "Ha Long Bay",
    "phone": "+84 338 102 155",
    "website": null,
    "rating": 4.8,
    "reviewCount": 102,
    "category": "Spa and health club",
    "location": {
      "lat": 20.9603562,
      "lng": 107.0204913
    },
    "scrapedAt": "2025-08-07T07:39:37.851Z",
    "district": "B√£i Ch√°y",
    "districtOrWard": "B√£i Ch√°y",
    "combinedScore": 4.859999999999999,
    "processedAt": "2025-08-07T11:12:01.195Z",
    "dataQuality": {
      "hasPhone": true,
      "hasWebsite": false,
      "hasRating": true,
      "hasDistrict": true,
      "hasLocation": true
    }
  },
  {
    "id": "ha-long-bay-23",
    "name": "massage Th·∫£o My 86",
    "address": "17 ƒê. Ti√™n √îng, B√£i Ch√°y, H·∫° Long, Qu·∫£ng Ninh, Vietnam",
    "city": "Ha Long Bay",
    "phone": "+84 343 885 585",
    "website": null,
    "rating": 5,
    "reviewCount": 17,
    "category": "Massage spa",
    "location": {
      "lat": 20.9544353,
      "lng": 107.022561
    },
    "scrapedAt": "2025-08-07T07:39:37.851Z",
    "district": "B√£i Ch√°y",
    "districtOrWard": "B√£i Ch√°y",
    "combinedScore": 3.755,
    "processedAt": "2025-08-07T11:12:01.195Z",
    "dataQuality": {
      "hasPhone": true,
      "hasWebsite": false,
      "hasRating": true,
      "hasDistrict": true,
      "hasLocation": true
    }
  },
  {
    "id": "ha-long-bay-24",
    "name": "Massage Mai Chi",
    "address": "A123 C·ªïng Sunworlg, B√£i Ch√°y, H·∫° Long, Qu·∫£ng Ninh, Vietnam",
    "city": "Ha Long Bay",
    "phone": "+84 987 671 226",
    "website": null,
    "rating": 4.8,
    "reviewCount": 160,
    "category": "Massage spa",
    "location": {
      "lat": 20.9549053,
      "lng": 107.0483394
    },
    "scrapedAt": "2025-08-07T07:39:37.851Z",
    "district": "B√£i Ch√°y",
    "districtOrWard": "B√£i Ch√°y",
    "combinedScore": 4.859999999999999,
    "processedAt": "2025-08-07T11:12:01.195Z",
    "dataQuality": {
      "hasPhone": true,
      "hasWebsite": false,
      "hasRating": true,
      "hasDistrict": true,
      "hasLocation": true
    }
  },
  {
    "id": "ha-long-bay-25",
    "name": "MASSAGE CH√ÇN MTV H·∫† LONG",
    "address": "√î S·ªë C25, L√¥ 1 Khu d√¢n c∆∞ du l·ªãch ƒê√¥ng H√πng Th·∫Øng, 2, B√£i Ch√°y, H·∫° Long, Qu·∫£ng Ninh 01119, Vietnam",
    "city": "Ha Long Bay",
    "phone": "+84 906 161 161",
    "website": null,
    "rating": 4.1,
    "reviewCount": 175,
    "category": "Massage spa",
    "location": {
      "lat": 20.9550587,
      "lng": 107.0196364
    },
    "scrapedAt": "2025-08-07T07:39:37.851Z",
    "district": "H√πng Th·∫Øng",
    "districtOrWard": "H√πng Th·∫Øng",
    "combinedScore": 4.369999999999999,
    "processedAt": "2025-08-07T11:12:01.195Z",
    "dataQuality": {
      "hasPhone": true,
      "hasWebsite": false,
      "hasRating": true,
      "hasDistrict": true,
      "hasLocation": true
    }
  },
  {
    "id": "ha-long-bay-26",
    "name": "MASSAGE H·∫¢I TRANG. BEST MASSAGE IN H·∫† LONG. Ìïò Í∏¥ÏóêÏÑú ÏµúÍ≥†Ïùò ÎßàÏÇ¨ÏßÄ",
    "address": "43 V∆∞·ªùn ƒê√†o, B√£i Ch√°y, H·∫° Long, Qu·∫£ng Ninh 202400, Vietnam",
    "city": "Ha Long Bay",
    "phone": "+84 934 615 660",
    "website": "https://www.facebook.com/Massage-H%E1%BA%A3i-Trang-103841034480565",
    "rating": 4.7,
    "reviewCount": 620,
    "category": "Massage therapist",
    "location": {
      "lat": 20.9577352,
      "lng": 107.0503461
    },
    "scrapedAt": "2025-08-07T07:39:37.851Z",
    "district": "B√£i Ch√°y",
    "districtOrWard": "B√£i Ch√°y",
    "combinedScore": 4.79,
    "processedAt": "2025-08-07T11:12:01.195Z",
    "dataQuality": {
      "hasPhone": true,
      "hasWebsite": true,
      "hasRating": true,
      "hasDistrict": true,
      "hasLocation": true
    }
  },
  {
    "id": "ha-long-bay-27",
    "name": "Foot Massage 68 - Sauna 68 Massage Body",
    "address": "ƒê. Ti√™n √îng, B√£i Ch√°y, H·∫° Long, Qu·∫£ng Ninh 10000, Vietnam",
    "city": "Ha Long Bay",
    "phone": "+84 862 322 883",
    "website": null,
    "rating": 4.8,
    "reviewCount": 29,
    "category": "Thai massage therapist",
    "location": {
      "lat": 20.9563864,
      "lng": 107.0221809
    },
    "scrapedAt": "2025-08-07T07:39:37.851Z",
    "district": "B√£i Ch√°y",
    "districtOrWard": "B√£i Ch√°y",
    "combinedScore": 3.7949999999999995,
    "processedAt": "2025-08-07T11:12:01.195Z",
    "dataQuality": {
      "hasPhone": true,
      "hasWebsite": false,
      "hasRating": true,
      "hasDistrict": true,
      "hasLocation": true
    }
  },
  {
    "id": "ha-long-bay-28",
    "name": "Massage Poseidon",
    "address": "W2XG+6CP, B√£i Ch√°y, H·∫° Long, Qu·∫£ng Ninh, Vietnam",
    "city": "Ha Long Bay",
    "phone": null,
    "website": null,
    "rating": 5,
    "reviewCount": 8,
    "category": "Massage spa",
    "location": {
      "lat": 20.9481629,
      "lng": 107.0260412
    },
    "scrapedAt": "2025-08-07T07:39:37.851Z",
    "district": "B√£i Ch√°y",
    "districtOrWard": "B√£i Ch√°y",
    "combinedScore": 3.62,
    "processedAt": "2025-08-07T11:12:01.195Z",
    "dataQuality": {
      "hasPhone": false,
      "hasWebsite": false,
      "hasRating": true,
      "hasDistrict": true,
      "hasLocation": true
    }
  },
  {
    "id": "ha-long-bay-29",
    "name": "Massage Nuru King Man - ƒê·ªânh Cao Th∆∞ Gi√£n",
    "address": "12 Nguy·ªÖn Th√°i H·ªçc, Tr·∫ßn H∆∞ng ƒê·∫°o, H·∫° Long, Qu·∫£ng Ninh, Vietnam",
    "city": "Ha Long Bay",
    "phone": "+84 567 235 999",
    "website": null,
    "rating": 3.8,
    "reviewCount": 22,
    "category": "Massage spa",
    "location": {
      "lat": 20.9621655,
      "lng": 107.0771349
    },
    "scrapedAt": "2025-08-07T07:39:37.851Z",
    "district": "H·∫° Long",
    "districtOrWard": "H·∫° Long",
    "combinedScore": 2.9899999999999993,
    "processedAt": "2025-08-07T11:12:01.195Z",
    "dataQuality": {
      "hasPhone": true,
      "hasWebsite": false,
      "hasRating": true,
      "hasDistrict": true,
      "hasLocation": true
    }
  },
  {
    "id": "ha-long-bay-30",
    "name": "Nam C∆∞·ªùng Massage",
    "address": "09 Tr·∫ßn Quang Di·ªáu, B√£i Ch√°y, H·∫° Long, Qu·∫£ng Ninh, Vietnam",
    "city": "Ha Long Bay",
    "phone": null,
    "website": null,
    "rating": 5,
    "reviewCount": 2,
    "category": "Massage spa",
    "location": {
      "lat": 20.9523491,
      "lng": 107.0252818
    },
    "scrapedAt": "2025-08-07T07:39:37.851Z",
    "district": "B√£i Ch√°y",
    "districtOrWard": "B√£i Ch√°y",
    "combinedScore": 3.53,
    "processedAt": "2025-08-07T11:12:01.195Z",
    "dataQuality": {
      "hasPhone": false,
      "hasWebsite": false,
      "hasRating": true,
      "hasDistrict": true,
      "hasLocation": true
    }
  },
  {
    "id": "ha-long-bay-31",
    "name": "FOOT MASSAGE",
    "address": "X22G+W3Q, Tr·∫ßn Quang Di·ªáu, B√£i Ch√°y, H·∫° Long, Qu·∫£ng Ninh, Vietnam",
    "city": "Ha Long Bay",
    "phone": null,
    "website": null,
    "rating": 3.2,
    "reviewCount": 27,
    "category": "Massage spa",
    "location": {
      "lat": 20.9523269,
      "lng": 107.025225
    },
    "scrapedAt": "2025-08-07T07:39:37.851Z",
    "district": "B√£i Ch√°y",
    "districtOrWard": "B√£i Ch√°y",
    "combinedScore": 2.6449999999999996,
    "processedAt": "2025-08-07T11:12:01.195Z",
    "dataQuality": {
      "hasPhone": false,
      "hasWebsite": false,
      "hasRating": true,
      "hasDistrict": true,
      "hasLocation": true
    }
  },
  {
    "id": "ha-long-bay-32",
    "name": "Trang Spa",
    "address": "89 ƒêi·ªán Bi√™n Ph·ªß, H·ªìng H√†, H·∫° Long, Qu·∫£ng Ninh, Vietnam",
    "city": "Ha Long Bay",
    "phone": null,
    "website": null,
    "rating": 5,
    "reviewCount": 11,
    "category": "Spa",
    "location": {
      "lat": 20.9382441,
      "lng": 107.1258194
    },
    "scrapedAt": "2025-08-07T07:39:37.851Z",
    "district": "H·∫° Long",
    "districtOrWard": "H·∫° Long",
    "combinedScore": 3.665,
    "processedAt": "2025-08-07T11:12:01.195Z",
    "dataQuality": {
      "hasPhone": false,
      "hasWebsite": false,
      "hasRating": true,
      "hasDistrict": true,
      "hasLocation": true
    }
  },
  {
    "id": "ha-long-bay-33",
    "name": "Tu·ªá An Spa",
    "address": "06 Monbay, Ph∆∞·ªùng, H·∫° Long, Qu·∫£ng Ninh, Vietnam",
    "city": "Ha Long Bay",
    "phone": "+84 986 269 862",
    "website": null,
    "rating": 5,
    "reviewCount": 11,
    "category": "Massage spa",
    "location": {
      "lat": 20.9504133,
      "lng": 107.0987325
    },
    "scrapedAt": "2025-08-07T07:39:37.851Z",
    "district": "H·∫° Long",
    "districtOrWard": "H·∫° Long",
    "combinedScore": 3.665,
    "processedAt": "2025-08-07T11:12:01.195Z",
    "dataQuality": {
      "hasPhone": true,
      "hasWebsite": false,
      "hasRating": true,
      "hasDistrict": true,
      "hasLocation": true
    }
  },
  {
    "id": "ha-long-bay-34",
    "name": "MiA Lyn spa",
    "address": "S·ªë 27 L√¥ A8 Khu Monbay - Ph·ªë, H·∫£i Long, Tp. H·∫° Long, Qu·∫£ng Ninh 200000, Vietnam",
    "city": "Ha Long Bay",
    "phone": "+84 906 008 618",
    "website": "https://mialyn.vn/",
    "rating": 4.9,
    "reviewCount": 91,
    "category": "Spa",
    "location": {
      "lat": 20.9505916,
      "lng": 107.0991418
    },
    "scrapedAt": "2025-08-07T07:39:37.851Z",
    "district": "H·∫° Long",
    "districtOrWard": "H·∫° Long",
    "combinedScore": 4.795,
    "processedAt": "2025-08-07T11:12:01.195Z",
    "dataQuality": {
      "hasPhone": true,
      "hasWebsite": true,
      "hasRating": true,
      "hasDistrict": true,
      "hasLocation": true
    }
  },
  {
    "id": "ha-long-bay-35",
    "name": "ƒê√†o Nhƒ© Th√†nh ƒê√¥ - H·∫° Long | Massage Spa | ÎßàÏÇ¨ÏßÄ Ïä§Ìåå | ÊåâÊë©Ê∞¥Áñó",
    "address": "A21 01 MonBay, H·ªìng H·∫£i, Th√†nh ph·ªë H·∫° Long, Qu·∫£ng Ninh 20000, Tp. H·∫° Long, Qu·∫£ng Ninh 200000, Vietnam",
    "city": "Ha Long Bay",
    "phone": "+84 965 926 666",
    "website": "https://daonhithanhdo.com/",
    "rating": 4.4,
    "reviewCount": 62,
    "category": "Massage spa",
    "location": {
      "lat": 20.947833,
      "lng": 107.1018946
    },
    "scrapedAt": "2025-08-07T07:39:37.851Z",
    "district": "H·ªìng H·∫£i",
    "districtOrWard": "H·ªìng H·∫£i",
    "combinedScore": 4.01,
    "processedAt": "2025-08-07T11:12:01.195Z",
    "dataQuality": {
      "hasPhone": true,
      "hasWebsite": true,
      "hasRating": true,
      "hasDistrict": true,
      "hasLocation": true
    }
  },
  {
    "id": "ha-long-bay-36",
    "name": "Ng√¢m Ch√¢n C·ªï Truy·ªÅn - Nguy·ªÖn Gia",
    "address": "2 C√¥ Giang, Cao Th·∫Øng, H·∫° Long, Qu·∫£ng Ninh 200000, Vietnam",
    "city": "Ha Long Bay",
    "phone": "+84 972 169 819",
    "website": "https://www.facebook.com/massageNguyenGia",
    "rating": 4.9,
    "reviewCount": 403,
    "category": "Spa",
    "location": {
      "lat": 20.9570967,
      "lng": 107.086093
    },
    "scrapedAt": "2025-08-07T07:39:37.851Z",
    "district": "H·∫° Long",
    "districtOrWard": "H·∫° Long",
    "combinedScore": 4.93,
    "processedAt": "2025-08-07T11:12:01.195Z",
    "dataQuality": {
      "hasPhone": true,
      "hasWebsite": true,
      "hasRating": true,
      "hasDistrict": true,
      "hasLocation": true
    }
  },
  {
    "id": "ha-long-bay-37",
    "name": "Lavie Spa",
    "address": "2 H·∫£i L·ªôc, H·ªìng H·∫£i, H·∫° Long, Qu·∫£ng Ninh, Vietnam",
    "city": "Ha Long Bay",
    "phone": "+84 981 189 638",
    "website": null,
    "rating": 5,
    "reviewCount": 2,
    "category": "Spa",
    "location": {
      "lat": 20.9479736,
      "lng": 107.1070723
    },
    "scrapedAt": "2025-08-07T07:39:37.851Z",
    "district": "H·ªìng H·∫£i",
    "districtOrWard": "H·ªìng H·∫£i",
    "combinedScore": 3.53,
    "processedAt": "2025-08-07T11:12:01.195Z",
    "dataQuality": {
      "hasPhone": true,
      "hasWebsite": false,
      "hasRating": true,
      "hasDistrict": true,
      "hasLocation": true
    }
  },
  {
    "id": "ha-long-bay-38",
    "name": "YUN SPA H·∫† LONG",
    "address": "69 Gi·∫øng ƒê·ªìn, Cao Th·∫Øng, H·∫° Long, Qu·∫£ng Ninh, Vietnam",
    "city": "Ha Long Bay",
    "phone": "+84 203 3706 706",
    "website": null,
    "rating": 5,
    "reviewCount": 1,
    "category": "Spa",
    "location": {
      "lat": 20.9569511,
      "lng": 107.0863458
    },
    "scrapedAt": "2025-08-07T07:39:37.851Z",
    "district": "H·∫° Long",
    "districtOrWard": "H·∫° Long",
    "combinedScore": 3.5149999999999997,
    "processedAt": "2025-08-07T11:12:01.195Z",
    "dataQuality": {
      "hasPhone": true,
      "hasWebsite": false,
      "hasRating": true,
      "hasDistrict": true,
      "hasLocation": true
    }
  },
  {
    "id": "ha-long-bay-39",
    "name": "MASSAGE - B·∫§M HUY·ªÜT - T·∫®M QU·∫§T C·ªî TRUY·ªÄN",
    "address": "48 Nguy·ªÖn Th√°i B√¨nh, H·ªìng H√†, H·∫° Long, Qu·∫£ng Ninh, Vietnam",
    "city": "Ha Long Bay",
    "phone": "+84 367 711 386",
    "website": null,
    "rating": 4.7,
    "reviewCount": 6,
    "category": "Massage therapist",
    "location": {
      "lat": 20.9392491,
      "lng": 107.123595
    },
    "scrapedAt": "2025-08-07T07:39:37.851Z",
    "district": "H·∫° Long",
    "districtOrWard": "H·∫° Long",
    "combinedScore": 3.3800000000000003,
    "processedAt": "2025-08-07T11:12:01.195Z",
    "dataQuality": {
      "hasPhone": true,
      "hasWebsite": false,
      "hasRating": true,
      "hasDistrict": true,
      "hasLocation": true
    }
  },
  {
    "id": "ha-long-bay-40",
    "name": "Massage 86 h·∫° long",
    "address": "Ki ·ªêt A139-A140, Khu Ph·ªë C·ªï, H·∫° Long, Qu·∫£ng Ninh, Vietnam",
    "city": "Ha Long Bay",
    "phone": "+84 987 286 290",
    "website": null,
    "rating": 3.6,
    "reviewCount": 65,
    "category": "Massage therapist",
    "location": {
      "lat": 20.9544217,
      "lng": 107.0474213
    },
    "scrapedAt": "2025-08-07T07:39:37.851Z",
    "district": "H·∫° Long",
    "districtOrWard": "H·∫° Long",
    "combinedScore": 3.495,
    "processedAt": "2025-08-07T11:12:01.195Z",
    "dataQuality": {
      "hasPhone": true,
      "hasWebsite": false,
      "hasRating": true,
      "hasDistrict": true,
      "hasLocation": true
    }
  },
  {
    "id": "ha-long-bay-41",
    "name": "D∆∞∆°ng Massage At Home",
    "address": "S·ªë 127 t·ªï 9, khu 3, H·∫° Long, Qu·∫£ng Ninh, Vietnam",
    "city": "Ha Long Bay",
    "phone": "+84 969 332 388",
    "website": "https://www.facebook.com/share/1APihc5XUz/?mibextid=wwXIfr",
    "rating": 5,
    "reviewCount": 11,
    "category": "Massage therapist",
    "location": {
      "lat": 20.9698159,
      "lng": 107.048954
    },
    "scrapedAt": "2025-08-07T07:39:37.851Z",
    "district": "H·∫° Long",
    "districtOrWard": "H·∫° Long",
    "combinedScore": 3.665,
    "processedAt": "2025-08-07T11:12:01.195Z",
    "dataQuality": {
      "hasPhone": true,
      "hasWebsite": true,
      "hasRating": true,
      "hasDistrict": true,
      "hasLocation": true
    }
  },
  {
    "id": "ha-long-bay-42",
    "name": "MASSAGE AT HOME",
    "address": "21 ng√µ 47 Anh ƒê√†o, B√£i Ch√°y, H·∫° Long, Qu·∫£ng Ninh, Vietnam",
    "city": "Ha Long Bay",
    "phone": null,
    "website": "https://www.facebook.com/share/16JN1DK2Rs/?mibextid=wwXIfr",
    "rating": 5,
    "reviewCount": 22,
    "category": "Massage therapist",
    "location": {
      "lat": 20.9589248,
      "lng": 107.0508341
    },
    "scrapedAt": "2025-08-07T07:39:37.851Z",
    "district": "B√£i Ch√°y",
    "districtOrWard": "B√£i Ch√°y",
    "combinedScore": 3.83,
    "processedAt": "2025-08-07T11:12:01.195Z",
    "dataQuality": {
      "hasPhone": false,
      "hasWebsite": true,
      "hasRating": true,
      "hasDistrict": true,
      "hasLocation": true
    }
  },
  {
    "id": "ha-long-bay-43",
    "name": "X√¥ng H∆°i Massage",
    "address": "X366+7W7, B√£i Ch√°y, H·∫° Long, Qu·∫£ng Ninh, Vietnam",
    "city": "Ha Long Bay",
    "phone": null,
    "website": null,
    "rating": 5,
    "reviewCount": 1,
    "category": "Massage therapist",
    "location": {
      "lat": 20.9606553,
      "lng": 107.0623116
    },
    "scrapedAt": "2025-08-07T07:39:37.851Z",
    "district": "B√£i Ch√°y",
    "districtOrWard": "B√£i Ch√°y",
    "combinedScore": 3.5149999999999997,
    "processedAt": "2025-08-07T11:12:01.195Z",
    "dataQuality": {
      "hasPhone": false,
      "hasWebsite": false,
      "hasRating": true,
      "hasDistrict": true,
      "hasLocation": true
    }
  },
  {
    "id": "ha-long-bay-44",
    "name": "Massage Th√°i",
    "address": "30 T·∫•n M√†i, B√£i Ch√°y, H·∫° Long, Qu·∫£ng Ninh, Vietnam",
    "city": "Ha Long Bay",
    "phone": "+84 971 893 688",
    "website": null,
    "rating": 3.3,
    "reviewCount": 3,
    "category": "Massage therapist",
    "location": {
      "lat": 20.9578967,
      "lng": 107.0220411
    },
    "scrapedAt": "2025-08-07T07:39:37.851Z",
    "district": "B√£i Ch√°y",
    "districtOrWard": "B√£i Ch√°y",
    "combinedScore": 2.3549999999999995,
    "processedAt": "2025-08-07T11:12:01.195Z",
    "dataQuality": {
      "hasPhone": true,
      "hasWebsite": false,
      "hasRating": true,
      "hasDistrict": true,
      "hasLocation": true
    }
  },
  {
    "id": "ha-long-bay-45",
    "name": "Spa Tr·ªã Li·ªáu ƒê√¥ng Y - Xoa B√≥p Tr·ªã Li·ªáu Theo Y H·ªçc C·ªï Truy·ªÅn",
    "address": "262 Nguy·ªÖn VƒÉn C·ª´, H·ªìng H√†, H·∫° Long, Qu·∫£ng Ninh 01000, Vietnam",
    "city": "Ha Long Bay",
    "phone": "+84 965 326 116",
    "website": null,
    "rating": 5,
    "reviewCount": 3,
    "category": "Massage therapist",
    "location": {
      "lat": 20.9411412,
      "lng": 107.1213768
    },
    "scrapedAt": "2025-08-07T07:39:37.851Z",
    "district": "H·∫° Long",
    "districtOrWard": "H·∫° Long",
    "combinedScore": 3.545,
    "processedAt": "2025-08-07T11:12:01.195Z",
    "dataQuality": {
      "hasPhone": true,
      "hasWebsite": false,
      "hasRating": true,
      "hasDistrict": true,
      "hasLocation": true
    }
  },
  {
    "id": "ha-long-bay-46",
    "name": "TT ChƒÉm S√≥c SK Ph√∫c Anh ƒê∆∞·ªùng",
    "address": "t·ªï 16 khu 4B, H√πng Th·∫Øng, H·∫° Long, Qu·∫£ng Ninh, Vietnam",
    "city": "Ha Long Bay",
    "phone": "+84 328 939 836",
    "website": null,
    "rating": 5,
    "reviewCount": 4,
    "category": "Massage therapist",
    "location": {
      "lat": 20.9611514,
      "lng": 107.0162513
    },
    "scrapedAt": "2025-08-07T07:39:37.851Z",
    "district": "H√πng Th·∫Øng",
    "districtOrWard": "H√πng Th·∫Øng",
    "combinedScore": 3.5599999999999996,
    "processedAt": "2025-08-07T11:12:01.195Z",
    "dataQuality": {
      "hasPhone": true,
      "hasWebsite": false,
      "hasRating": true,
      "hasDistrict": true,
      "hasLocation": true
    }
  },
  {
    "id": "ha-long-bay-47",
    "name": "HB Spa - H·∫° Long (D∆∞·ª°ng Sinh & Th·ªß ƒê·∫°o Thang)",
    "address": "D·ª± √°n khu d√¢n c∆∞, C·ªôt 5/T·ªï 8 Khu 8, P, H·∫° Long, Qu·∫£ng Ninh 200000, Vietnam",
    "city": "Ha Long Bay",
    "phone": "+84 973 158 693",
    "website": "https://www.hbspa.com.vn/combo399gg",
    "rating": 4.4,
    "reviewCount": 7,
    "category": "Massage spa",
    "location": {
      "lat": 20.9397169,
      "lng": 107.1133255
    },
    "scrapedAt": "2025-08-07T07:39:37.851Z",
    "district": "H·∫° Long",
    "districtOrWard": "H·∫° Long",
    "combinedScore": 3.185,
    "processedAt": "2025-08-07T11:12:01.195Z",
    "dataQuality": {
      "hasPhone": true,
      "hasWebsite": true,
      "hasRating": true,
      "hasDistrict": true,
      "hasLocation": true
    }
  },
  {
    "id": "ha-long-bay-48",
    "name": "Massage TQT - S·ªØa chua, kem ƒë·∫£o d·ª´a",
    "address": "ph·ªë c·ªï Sun World, A111, B√£i Ch√°y, H·∫° Long, Qu·∫£ng Ninh 20000, Vietnam",
    "city": "Ha Long Bay",
    "phone": "+84 936 080 168",
    "website": null,
    "rating": 2.4,
    "reviewCount": 35,
    "category": "Massage spa",
    "location": {
      "lat": 20.9551273,
      "lng": 107.0487097
    },
    "scrapedAt": "2025-08-07T07:39:37.851Z",
    "district": "B√£i Ch√°y",
    "districtOrWard": "B√£i Ch√°y",
    "combinedScore": 2.2049999999999996,
    "processedAt": "2025-08-07T11:12:01.195Z",
    "dataQuality": {
      "hasPhone": true,
      "hasWebsite": false,
      "hasRating": true,
      "hasDistrict": true,
      "hasLocation": true
    }
  },
  {
    "id": "ha-long-bay-49",
    "name": "Strechdisaz Massage",
    "address": "2 Nguy·ªÖn VƒÉn C·ª´, H·ªìng H·∫£i, H·∫° Long, Qu·∫£ng Ninh, Vietnam",
    "city": "Ha Long Bay",
    "phone": "+84 868 359 569",
    "website": null,
    "rating": null,
    "reviewCount": 0,
    "category": "Massage spa",
    "location": {
      "lat": 20.9572745,
      "lng": 107.0972948
    },
    "scrapedAt": "2025-08-07T07:39:37.851Z",
    "district": "H·ªìng H·∫£i",
    "districtOrWard": "H·ªìng H·∫£i",
    "combinedScore": 0,
    "processedAt": "2025-08-07T11:12:01.195Z",
    "dataQuality": {
      "hasPhone": true,
      "hasWebsite": false,
      "hasRating": false,
      "hasDistrict": true,
      "hasLocation": true
    }
  },
  {
    "id": "ha-long-bay-50",
    "name": "Chan Spa-Clinic-Academy",
    "address": "89 ƒêi·ªán Bi√™n Ph·ªß, H·ªìng H√†, H·∫° Long, Qu·∫£ng Ninh, Vietnam",
    "city": "Ha Long Bay",
    "phone": "+84 836 118 988",
    "website": "https://www.facebook.com/Chan-Spa-Clinic-Academy-105628981268744",
    "rating": 5,
    "reviewCount": 5,
    "category": "Spa",
    "location": {
      "lat": 20.9382441,
      "lng": 107.1258194
    },
    "scrapedAt": "2025-08-07T07:39:37.851Z",
    "district": "H·∫° Long",
    "districtOrWard": "H·∫° Long",
    "combinedScore": 3.5749999999999997,
    "processedAt": "2025-08-07T11:12:01.195Z",
    "dataQuality": {
      "hasPhone": true,
      "hasWebsite": true,
      "hasRating": true,
      "hasDistrict": true,
      "hasLocation": true
    }
  },
  {
    "id": "ha-long-bay-51",
    "name": "H∆∞∆°ng Vy Beauty & Spa H·∫° Long QN",
    "address": "268 ƒë∆∞·ªùng Nguy·ªÖn VƒÉn C·ª´, H·ªìng H√†, H·∫° Long, Qu·∫£ng Ninh 200000, Vietnam",
    "city": "Ha Long Bay",
    "phone": "+84 936 369 688",
    "website": "https://www.facebook.com/huongvybeautyspa268nguyenvancucot5?mibextid=D4KYlr",
    "rating": 5,
    "reviewCount": 19,
    "category": "Spa",
    "location": {
      "lat": 20.9410585,
      "lng": 107.1216308
    },
    "scrapedAt": "2025-08-07T07:39:37.851Z",
    "district": "H·∫° Long",
    "districtOrWard": "H·∫° Long",
    "combinedScore": 3.7849999999999993,
    "processedAt": "2025-08-07T11:12:01.195Z",
    "dataQuality": {
      "hasPhone": true,
      "hasWebsite": true,
      "hasRating": true,
      "hasDistrict": true,
      "hasLocation": true
    }
  },
  {
    "id": "ha-long-bay-52",
    "name": "GREEN BEAUTY & SPA",
    "address": "T·ªï 8, khu 3, H·∫° Long, Qu·∫£ng Ninh, Vietnam",
    "city": "Ha Long Bay",
    "phone": "+84 904 064 168",
    "website": null,
    "rating": 5,
    "reviewCount": 1,
    "category": "Spa",
    "location": {
      "lat": 20.9425835,
      "lng": 107.1226434
    },
    "scrapedAt": "2025-08-07T07:39:37.851Z",
    "district": "H·∫° Long",
    "districtOrWard": "H·∫° Long",
    "combinedScore": 3.5149999999999997,
    "processedAt": "2025-08-07T11:12:01.195Z",
    "dataQuality": {
      "hasPhone": true,
      "hasWebsite": false,
      "hasRating": true,
      "hasDistrict": true,
      "hasLocation": true
    }
  },
  {
    "id": "ha-long-bay-53",
    "name": "Vui Beauty Spa",
    "address": "ƒë∆∞·ªùng Nguy·ªÖn VƒÉn C·ª´, H·ªìng H√†, H·∫° Long, Qu·∫£ng Ninh, Vietnam",
    "city": "Ha Long Bay",
    "phone": "+84 848 199 288",
    "website": null,
    "rating": 5,
    "reviewCount": 3,
    "category": "Facial spa",
    "location": {
      "lat": 20.9432551,
      "lng": 107.118161
    },
    "scrapedAt": "2025-08-07T07:39:37.851Z",
    "district": "H·∫° Long",
    "districtOrWard": "H·∫° Long",
    "combinedScore": 3.545,
    "processedAt": "2025-08-07T11:12:01.195Z",
    "dataQuality": {
      "hasPhone": true,
      "hasWebsite": false,
      "hasRating": true,
      "hasDistrict": true,
      "hasLocation": true
    }
  },
  {
    "id": "ha-long-bay-54",
    "name": "Rose Spa",
    "address": "57 Gi·∫øng ƒê·ªìn, Cao Th·∫Øng, H·∫° Long, Qu·∫£ng Ninh, Vietnam",
    "city": "Ha Long Bay",
    "phone": "+84 707 856 666",
    "website": null,
    "rating": 5,
    "reviewCount": 1,
    "category": "Spa",
    "location": {
      "lat": 20.9566976,
      "lng": 107.086394
    },
    "scrapedAt": "2025-08-07T07:39:37.851Z",
    "district": "H·∫° Long",
    "districtOrWard": "H·∫° Long",
    "combinedScore": 3.5149999999999997,
    "processedAt": "2025-08-07T11:12:01.195Z",
    "dataQuality": {
      "hasPhone": true,
      "hasWebsite": false,
      "hasRating": true,
      "hasDistrict": true,
      "hasLocation": true
    }
  },
  {
    "id": "ha-long-bay-55",
    "name": "HB SPA D∆∞·ª°ng Sinh ƒê√¥ng Y H·∫° Long",
    "address": "D09-06-07 KƒêT MONBAY, H·∫° Long, Qu·∫£ng Ninh, Vietnam",
    "city": "Ha Long Bay",
    "phone": "+84 919 659 889",
    "website": "https://m.facebook.com/121138602612939",
    "rating": 4.2,
    "reviewCount": 6,
    "category": "Spa",
    "location": {
      "lat": 20.9497482,
      "lng": 107.1005924
    },
    "scrapedAt": "2025-08-07T07:39:37.851Z",
    "district": "H·∫° Long",
    "districtOrWard": "H·∫° Long",
    "combinedScore": 3.03,
    "processedAt": "2025-08-07T11:12:01.195Z",
    "dataQuality": {
      "hasPhone": true,
      "hasWebsite": true,
      "hasRating": true,
      "hasDistrict": true,
      "hasLocation": true
    }
  },
  {
    "id": "ha-long-bay-56",
    "name": "Excellence Spa H·∫° Long - ChƒÉm S√≥c S·ª©c Kh·ªèe D∆∞·ª°ng Sinh Thu·∫ßn T·ª± Nhi√™n",
    "address": "M·ªπ Gia 1-23 - Vinhomes Dragon Bay, 1 B·∫øn ƒêoan, H·ªìng Gai, H·∫° Long, Qu·∫£ng Ninh, Vietnam",
    "city": "Ha Long Bay",
    "phone": "+84 968 609 088",
    "website": "https://excellencespa.vn/",
    "rating": 4.6,
    "reviewCount": 10,
    "category": "Health spa",
    "location": {
      "lat": 20.9480749,
      "lng": 107.0730865
    },
    "scrapedAt": "2025-08-07T07:39:37.851Z",
    "district": "H·∫° Long",
    "districtOrWard": "H·∫° Long",
    "combinedScore": 3.3699999999999997,
    "processedAt": "2025-08-07T11:12:01.195Z",
    "dataQuality": {
      "hasPhone": true,
      "hasWebsite": true,
      "hasRating": true,
      "hasDistrict": true,
      "hasLocation": true
    }
  },
  {
    "id": "ha-long-bay-57",
    "name": "H·ªìi Spa ƒê√¥ng Y Qu·∫£ng Ninh",
    "address": "Ng√µ 3 25 Th√°ng 4, P. B·∫°ch ƒê·∫±ng, H·∫° Long, Qu·∫£ng Ninh 200000, Vietnam",
    "city": "Ha Long Bay",
    "phone": "+84 836 309 898",
    "website": null,
    "rating": 5,
    "reviewCount": 4,
    "category": "Health spa",
    "location": {
      "lat": 20.9522625,
      "lng": 107.0801964
    },
    "scrapedAt": "2025-08-07T07:39:37.851Z",
    "district": "H·∫° Long",
    "districtOrWard": "H·∫° Long",
    "combinedScore": 3.5599999999999996,
    "processedAt": "2025-08-07T11:12:01.195Z",
    "dataQuality": {
      "hasPhone": true,
      "hasWebsite": false,
      "hasRating": true,
      "hasDistrict": true,
      "hasLocation": true
    }
  },
  {
    "id": "ha-long-bay-58",
    "name": "Kim Beauty Spa & Eyelash",
    "address": "687 Nguy·ªÖn VƒÉn C·ª´, H·ªìng H·∫£i, H·∫° Long, Qu·∫£ng Ninh, Vietnam",
    "city": "Ha Long Bay",
    "phone": "+84 928 521 992",
    "website": null,
    "rating": 5,
    "reviewCount": 4,
    "category": "Spa",
    "location": {
      "lat": 20.9474502,
      "lng": 107.1080785
    },
    "scrapedAt": "2025-08-07T07:39:37.851Z",
    "district": "H·ªìng H·∫£i",
    "districtOrWard": "H·ªìng H·∫£i",
    "combinedScore": 3.5599999999999996,
    "processedAt": "2025-08-07T11:12:01.195Z",
    "dataQuality": {
      "hasPhone": true,
      "hasWebsite": false,
      "hasRating": true,
      "hasDistrict": true,
      "hasLocation": true
    }
  },
  {
    "id": "ha-long-bay-59",
    "name": "HL Spa g·ªôi ƒë·∫ßu d∆∞·ª°ng sinh",
    "address": "X32G+CJV KƒêT Vi·ªát H√†n ( ƒë·ªëi di·ªán Tr∆∞·ªùng, VƒÉn Lang, H·ªìng Gai, H·∫° Long, Qu·∫£ng Ninh 01106, Vietnam",
    "city": "Ha Long Bay",
    "phone": "+84 363 988 111",
    "website": "https://www.facebook.com/HL-Cafe-Spa-102127342028595/?ref=pages_you_manage",
    "rating": 5,
    "reviewCount": 1,
    "category": "Health spa",
    "location": {
      "lat": 20.9511145,
      "lng": 107.0765468
    },
    "scrapedAt": "2025-08-07T07:39:37.851Z",
    "district": "H·∫° Long",
    "districtOrWard": "H·∫° Long",
    "combinedScore": 3.5149999999999997,
    "processedAt": "2025-08-07T11:12:01.195Z",
    "dataQuality": {
      "hasPhone": true,
      "hasWebsite": true,
      "hasRating": true,
      "hasDistrict": true,
      "hasLocation": true
    }
  },
  {
    "id": "ha-long-bay-60",
    "name": "Spa Ch√≥ M√®o",
    "address": "278 Nguy·ªÖn VƒÉn C·ª´, H·ªìng H√†, H·∫° Long, Qu·∫£ng Ninh 100000, Vietnam",
    "city": "Ha Long Bay",
    "phone": "+84 983 692 968",
    "website": null,
    "rating": null,
    "reviewCount": 0,
    "category": "Spa",
    "location": {
      "lat": 20.9410741,
      "lng": 107.1219803
    },
    "scrapedAt": "2025-08-07T07:39:37.851Z",
    "district": "H·∫° Long",
    "districtOrWard": "H·∫° Long",
    "combinedScore": 0,
    "processedAt": "2025-08-07T11:12:01.195Z",
    "dataQuality": {
      "hasPhone": true,
      "hasWebsite": false,
      "hasRating": false,
      "hasDistrict": true,
      "hasLocation": true
    }
  },
  {
    "id": "ha-long-bay-61",
    "name": "HB SPA 05 H·∫† LONG",
    "address": "10 t·ªï 8, khu 8, H·∫° Long, Qu·∫£ng Ninh, Vietnam",
    "city": "Ha Long Bay",
    "phone": "+84 973 158 693",
    "website": null,
    "rating": null,
    "reviewCount": 0,
    "category": "Health spa",
    "location": {
      "lat": 20.94296,
      "lng": 107.1105537
    },
    "scrapedAt": "2025-08-07T07:39:37.851Z",
    "district": "H·∫° Long",
    "districtOrWard": "H·∫° Long",
    "combinedScore": 0,
    "processedAt": "2025-08-07T11:12:01.195Z",
    "dataQuality": {
      "hasPhone": true,
      "hasWebsite": false,
      "hasRating": false,
      "hasDistrict": true,
      "hasLocation": true
    }
  },
  {
    "id": "ha-long-bay-62",
    "name": "Spa Thi√™n An",
    "address": "11B H·∫£i H√†, H·ªìng H·∫£i, H·∫° Long, Qu·∫£ng Ninh, Vietnam",
    "city": "Ha Long Bay",
    "phone": "+84 344 778 866",
    "website": null,
    "rating": null,
    "reviewCount": 0,
    "category": "Spa",
    "location": {
      "lat": 20.9437564,
      "lng": 107.1096323
    },
    "scrapedAt": "2025-08-07T07:39:37.851Z",
    "district": "H·ªìng H·∫£i",
    "districtOrWard": "H·ªìng H·∫£i",
    "combinedScore": 0,
    "processedAt": "2025-08-07T11:12:01.195Z",
    "dataQuality": {
      "hasPhone": true,
      "hasWebsite": false,
      "hasRating": false,
      "hasDistrict": true,
      "hasLocation": true
    }
  },
  {
    "id": "ha-long-bay-63",
    "name": "ùëªùíìùíñùíèùíà ùëªùíÇÃÇùíé ùë´ùíñÃõùíêÃõÃÉùíèùíà ùë∫ùíäùíèùíâ ùë∫ùíñÃõÃÅùíÑ ùë≤ùíâùíêùíÜÃâ ùëØùíñùíöùíÜÃÇÃÄùíè ùë¥ùíö ùë©ùíÜùíÇùíñùíïùíö - ùëµùíàùíñÃõÃ£ ùíÄ ùë™ùíêÃÇÃâ ùë∑ùíâùíñÃõùíêÃõùíèùíà ùëØùíÇÃ£ ùë≥ùíêùíèùíà",
    "address": "T·ªï 12 khu 2, H√† Trung, H·∫° Long, Qu·∫£ng Ninh, Vietnam",
    "city": "Ha Long Bay",
    "phone": "+84 325 751 468",
    "website": null,
    "rating": 5,
    "reviewCount": 4,
    "category": "Massage therapist",
    "location": {
      "lat": 20.9562409,
      "lng": 107.1284652
    },
    "scrapedAt": "2025-08-07T07:39:37.851Z",
    "district": "H·∫° Long",
    "districtOrWard": "H·∫° Long",
    "combinedScore": 3.5599999999999996,
    "processedAt": "2025-08-07T11:12:01.195Z",
    "dataQuality": {
      "hasPhone": true,
      "hasWebsite": false,
      "hasRating": true,
      "hasDistrict": true,
      "hasLocation": true
    }
  },
  {
    "id": "ha-long-bay-64",
    "name": "Foot Massage Khang Ph√∫c 2",
    "address": "505 H·∫° Long, B√£i Ch√°y, H·∫° Long, Qu·∫£ng Ninh 01000, Vietnam",
    "city": "Ha Long Bay",
    "phone": "+84 987 787 109",
    "website": null,
    "rating": 4,
    "reviewCount": 2,
    "category": "Massage therapist",
    "location": {
      "lat": 20.9576598,
      "lng": 107.0227501
    },
    "scrapedAt": "2025-08-07T07:39:37.851Z",
    "district": "B√£i Ch√°y",
    "districtOrWard": "B√£i Ch√°y",
    "combinedScore": 2.8299999999999996,
    "processedAt": "2025-08-07T11:12:01.195Z",
    "dataQuality": {
      "hasPhone": true,
      "hasWebsite": false,
      "hasRating": true,
      "hasDistrict": true,
      "hasLocation": true
    }
  },
  {
    "id": "ha-long-bay-65",
    "name": "Shanghai Massage",
    "address": "27 Nguy·ªÖn Tri Ph∆∞∆°ng, Tr·∫ßn H∆∞ng ƒê·∫°o, H·∫° Long, Qu·∫£ng Ninh, Vietnam",
    "city": "Ha Long Bay",
    "phone": null,
    "website": null,
    "rating": null,
    "reviewCount": 0,
    "category": "Massage therapist",
    "location": {
      "lat": 20.9600302,
      "lng": 107.0739961
    },
    "scrapedAt": "2025-08-07T07:39:37.851Z",
    "district": "H·∫° Long",
    "districtOrWard": "H·∫° Long",
    "combinedScore": 0,
    "processedAt": "2025-08-07T11:12:01.195Z",
    "dataQuality": {
      "hasPhone": false,
      "hasWebsite": false,
      "hasRating": false,
      "hasDistrict": true,
      "hasLocation": true
    }
  },
  {
    "id": "ha-long-bay-66",
    "name": "C·ª≠a H√†ng Massage 86",
    "address": "Ch·ª£ C√°i DƒÉm, B√£i Ch√°y, H·∫° Long, Qu·∫£ng Ninh, Vietnam",
    "city": "Ha Long Bay",
    "phone": "+84 372 205 186",
    "website": null,
    "rating": 3.5,
    "reviewCount": 11,
    "category": "Massage therapist",
    "location": {
      "lat": 20.9562797,
      "lng": 107.0222155
    },
    "scrapedAt": "2025-08-07T07:39:37.851Z",
    "district": "B√£i Ch√°y",
    "districtOrWard": "B√£i Ch√°y",
    "combinedScore": 2.6149999999999993,
    "processedAt": "2025-08-07T11:12:01.195Z",
    "dataQuality": {
      "hasPhone": true,
      "hasWebsite": false,
      "hasRating": true,
      "hasDistrict": true,
      "hasLocation": true
    }
  },
  {
    "id": "ha-long-bay-67",
    "name": "Trung T√¢m ChƒÉm S√≥c S·ª©c Kho·∫ª- A Tr·∫ßn 88 (ÈòøÈôà‰∏≠Âçé)",
    "address": "KƒêT Monbay/L√¥ 17 Phan ƒêƒÉng L∆∞u, H·ªìng H·∫£i, H·∫° Long, Qu·∫£ng Ninh 200000, Vietnam",
    "city": "Ha Long Bay",
    "phone": "+84 707 378 899",
    "website": "https://www.facebook.com/Atran88Spa?mibextid=LQQJ4d",
    "rating": 5,
    "reviewCount": 45,
    "category": "Spa",
    "location": {
      "lat": 20.9486779,
      "lng": 107.1025163
    },
    "scrapedAt": "2025-08-07T07:39:37.851Z",
    "district": "H·ªìng H·∫£i",
    "districtOrWard": "H·ªìng H·∫£i",
    "combinedScore": 4.175,
    "processedAt": "2025-08-07T11:12:01.195Z",
    "dataQuality": {
      "hasPhone": true,
      "hasWebsite": true,
      "hasRating": true,
      "hasDistrict": true,
      "hasLocation": true
    }
  },
  {
    "id": "ha-long-bay-68",
    "name": "M·ªôc Tr√† Massage - SaunaÎßàÏÇ¨ÏßÄ; ÊåâÊë©Ê°ëÊãø , ƒê·ªãa ch·ªâ : 324, ƒë∆∞·ªùng H·∫° LONG, Ph∆∞·ªùng B√£i Ch√°y",
    "address": "324 H·∫° Long, B√£i Ch√°y, H·∫° Long, Qu·∫£ng Ninh, Vietnam",
    "city": "Ha Long Bay",
    "phone": "+84 377 811 511",
    "website": "https://www.facebook.com/profile.php?id=100093205821101",
    "rating": 4.8,
    "reviewCount": 308,
    "category": "Massage spa",
    "location": {
      "lat": 20.9518871,
      "lng": 107.0263929
    },
    "scrapedAt": "2025-08-07T07:39:37.851Z",
    "district": "B√£i Ch√°y",
    "districtOrWard": "B√£i Ch√°y",
    "combinedScore": 4.859999999999999,
    "processedAt": "2025-08-07T11:12:01.195Z",
    "dataQuality": {
      "hasPhone": true,
      "hasWebsite": true,
      "hasRating": true,
      "hasDistrict": true,
      "hasLocation": true
    }
  },
  {
    "id": "ha-long-bay-69",
    "name": "G·ªôi ƒë·∫ßu c·ªè th∆°m",
    "address": "S·ªë 15 t·ªï 2, khu 6, H·∫° Long, Qu·∫£ng Ninh, Vietnam",
    "city": "Ha Long Bay",
    "phone": "+84 916 571 528",
    "website": null,
    "rating": 4.8,
    "reviewCount": 12,
    "category": "Spa",
    "location": {
      "lat": 20.9466277,
      "lng": 107.1058187
    },
    "scrapedAt": "2025-08-07T07:39:37.851Z",
    "district": "H·∫° Long",
    "districtOrWard": "H·∫° Long",
    "combinedScore": 3.54,
    "processedAt": "2025-08-07T11:12:01.195Z",
    "dataQuality": {
      "hasPhone": true,
      "hasWebsite": false,
      "hasRating": true,
      "hasDistrict": true,
      "hasLocation": true
    }
  },
  {
    "id": "ha-long-bay-70",
    "name": "M·ªôc T√¢m An SPA",
    "address": "√¥ 20, Khu t√°i ƒë·ªãnh c∆∞, H·∫° Long, Qu·∫£ng Ninh 201130, Vietnam",
    "city": "Ha Long Bay",
    "phone": "+84 375 599 340",
    "website": null,
    "rating": 5,
    "reviewCount": 12,
    "category": "Health and beauty shop",
    "location": {
      "lat": 20.9500319,
      "lng": 107.1018523
    },
    "scrapedAt": "2025-08-07T07:39:37.851Z",
    "district": "H·∫° Long",
    "districtOrWard": "H·∫° Long",
    "combinedScore": 3.6799999999999997,
    "processedAt": "2025-08-07T11:12:01.195Z",
    "dataQuality": {
      "hasPhone": true,
      "hasWebsite": false,
      "hasRating": true,
      "hasDistrict": true,
      "hasLocation": true
    }
  },
  {
    "id": "ha-long-bay-71",
    "name": "Spa H∆∞∆°ng Anh",
    "address": "LK3/23 H√πng Th·∫Øng, khu bi·ªát th·ª± T√¢y, H·∫° Long, Qu·∫£ng Ninh 10000, Vietnam",
    "city": "Ha Long Bay",
    "phone": "+84 938 389 086",
    "website": null,
    "rating": 4.8,
    "reviewCount": 19,
    "category": "Health spa",
    "location": {
      "lat": 20.9603031,
      "lng": 106.9956023
    },
    "scrapedAt": "2025-08-07T07:39:37.851Z",
    "district": "H√πng Th·∫Øng",
    "districtOrWard": "H√πng Th·∫Øng",
    "combinedScore": 3.6449999999999996,
    "processedAt": "2025-08-07T11:12:01.195Z",
    "dataQuality": {
      "hasPhone": true,
      "hasWebsite": false,
      "hasRating": true,
      "hasDistrict": true,
      "hasLocation": true
    }
  },
  {
    "id": "ha-long-bay-72",
    "name": "Massage",
    "address": "khu Sun Premier Village, 15 H∆∞·ªõng D∆∞∆°ng 7, Tu·∫ßn Ch√¢u, H·∫° Long, Qu·∫£ng Ninh, Vietnam",
    "city": "Ha Long Bay",
    "phone": null,
    "website": null,
    "rating": null,
    "reviewCount": 0,
    "category": "Massage therapist",
    "location": {
      "lat": 20.94553,
      "lng": 107.0355241
    },
    "scrapedAt": "2025-08-07T07:39:37.851Z",
    "district": "H·∫° Long",
    "districtOrWard": "H·∫° Long",
    "combinedScore": 0,
    "processedAt": "2025-08-07T11:12:01.195Z",
    "dataQuality": {
      "hasPhone": false,
      "hasWebsite": false,
      "hasRating": false,
      "hasDistrict": true,
      "hasLocation": true
    }
  },
  {
    "id": "ha-long-bay-73",
    "name": "Massage B√≠ ƒê·ªè",
    "address": "T√¥ Hi·∫øn Th√†nh/7 khu 4 phuong, Cao Th·∫Øng, H·∫° Long, Qu·∫£ng Ninh, Vietnam",
    "city": "Ha Long Bay",
    "phone": "+84 376 967 686",
    "website": null,
    "rating": null,
    "reviewCount": 0,
    "category": "Massage therapist",
    "location": {
      "lat": 20.9579483,
      "lng": 107.08321
    },
    "scrapedAt": "2025-08-07T07:39:37.851Z",
    "district": "H·∫° Long",
    "districtOrWard": "H·∫° Long",
    "combinedScore": 0,
    "processedAt": "2025-08-07T11:12:01.195Z",
    "dataQuality": {
      "hasPhone": true,
      "hasWebsite": false,
      "hasRating": false,
      "hasDistrict": true,
      "hasLocation": true
    }
  },
  {
    "id": "ha-long-bay-74",
    "name": "Ph∆∞∆°ng Th√∫y G·ªôi ƒê·∫ßu Massage Th∆∞ Gi√£n",
    "address": "W4W4+PP4, H·∫£i Tr∆∞·ªùng, H·ªìng H·∫£i, H·∫° Long, Qu·∫£ng Ninh, Vietnam",
    "city": "Ha Long Bay",
    "phone": null,
    "website": null,
    "rating": null,
    "reviewCount": 0,
    "category": "Massage therapist",
    "location": {
      "lat": 20.9467704,
      "lng": 107.1068159
    },
    "scrapedAt": "2025-08-07T07:39:37.851Z",
    "district": "H·ªìng H·∫£i",
    "districtOrWard": "H·ªìng H·∫£i",
    "combinedScore": 0,
    "processedAt": "2025-08-07T11:12:01.195Z",
    "dataQuality": {
      "hasPhone": false,
      "hasWebsite": false,
      "hasRating": false,
      "hasDistrict": true,
      "hasLocation": true
    }
  },
  {
    "id": "ha-long-bay-75",
    "name": "‰∏ãÈæôÊπæË∂≥Êµ¥ÊåâÊë©‰ºöÊâÄMassage T√¥ Th·ªã - D∆∞·ª°ng sinh Trung Hoa",
    "address": "X33P+V9V, B√£i Ch√°y, Tp. H·∫° Long, Qu·∫£ng Ninh, Vietnam",
    "city": "Ha Long Bay",
    "phone": "+84 353 351 775",
    "website": null,
    "rating": null,
    "reviewCount": 0,
    "category": "Massage therapist",
    "location": {
      "lat": 20.9546875,
      "lng": 107.0859375
    },
    "scrapedAt": "2025-08-07T07:39:37.851Z",
    "district": "B√£i Ch√°y",
    "districtOrWard": "B√£i Ch√°y",
    "combinedScore": 0,
    "processedAt": "2025-08-07T11:12:01.195Z",
    "dataQuality": {
      "hasPhone": true,
      "hasWebsite": false,
      "hasRating": false,
      "hasDistrict": true,
      "hasLocation": true
    }
  },
  {
    "id": "ha-long-bay-76",
    "name": "Ti·ªám Nail - Massage Ch√¢n My's Ph∆∞∆°ng",
    "address": "511 ƒê. Cao Th·∫Øng, Cao Th·∫Øng, H·∫° Long, Qu·∫£ng Ninh, Vietnam",
    "city": "Ha Long Bay",
    "phone": "+84 385 288 889",
    "website": null,
    "rating": null,
    "reviewCount": 0,
    "category": "Massage therapist",
    "location": {
      "lat": 20.963027,
      "lng": 107.0962647
    },
    "scrapedAt": "2025-08-07T07:39:37.851Z",
    "district": "H·∫° Long",
    "districtOrWard": "H·∫° Long",
    "combinedScore": 0,
    "processedAt": "2025-08-07T11:12:01.195Z",
    "dataQuality": {
      "hasPhone": true,
      "hasWebsite": false,
      "hasRating": false,
      "hasDistrict": true,
      "hasLocation": true
    }
  },
  {
    "id": "ha-long-bay-77",
    "name": "Ph∆∞∆°ng Linh Spa",
    "address": "332 Minh H√†, H√† Tu, H·∫° Long, Qu·∫£ng Ninh, Vietnam",
    "city": "Ha Long Bay",
    "phone": "+84 989 263 185",
    "website": null,
    "rating": null,
    "reviewCount": 0,
    "category": "Spa",
    "location": {
      "lat": 20.9565117,
      "lng": 107.1612145
    },
    "scrapedAt": "2025-08-07T07:39:37.851Z",
    "district": "H·∫° Long",
    "districtOrWard": "H·∫° Long",
    "combinedScore": 0,
    "processedAt": "2025-08-07T11:12:01.195Z",
    "dataQuality": {
      "hasPhone": true,
      "hasWebsite": false,
      "hasRating": false,
      "hasDistrict": true,
      "hasLocation": true
    }
  },
  {
    "id": "ha-long-bay-78",
    "name": "Ho√†ng Lan Spa",
    "address": "T·ªï 8, Khu 2, H·∫° Long, Qu·∫£ng Ninh, Vietnam",
    "city": "Ha Long Bay",
    "phone": "+84 966 806 899",
    "website": null,
    "rating": 1,
    "reviewCount": 1,
    "category": "Spa",
    "location": {
      "lat": 20.9595686,
      "lng": 107.1558846
    },
    "scrapedAt": "2025-08-07T07:39:37.851Z",
    "district": "H·∫° Long",
    "districtOrWard": "H·∫° Long",
    "combinedScore": 0.715,
    "processedAt": "2025-08-07T11:12:01.195Z",
    "dataQuality": {
      "hasPhone": true,
      "hasWebsite": false,
      "hasRating": true,
      "hasDistrict": true,
      "hasLocation": true
    }
  },
  {
    "id": "ha-long-bay-79",
    "name": "Spa Ninh",
    "address": "X542+XPF, V≈© VƒÉn Hi·∫øu, H√† Tu, H·∫° Long, Qu·∫£ng Ninh, Vietnam",
    "city": "Ha Long Bay",
    "phone": "+84 397 793 666",
    "website": null,
    "rating": null,
    "reviewCount": 0,
    "category": "Spa",
    "location": {
      "lat": 20.9574446,
      "lng": 107.1517844
    },
    "scrapedAt": "2025-08-07T07:39:37.851Z",
    "district": "H·∫° Long",
    "districtOrWard": "H·∫° Long",
    "combinedScore": 0,
    "processedAt": "2025-08-07T11:12:01.195Z",
    "dataQuality": {
      "hasPhone": true,
      "hasWebsite": false,
      "hasRating": false,
      "hasDistrict": true,
      "hasLocation": true
    }
  },
  {
    "id": "ha-long-bay-80",
    "name": "Massage Th·∫£o My 86",
    "address": "ƒê. Ti√™n √îng/13 C√°i DƒÉm, B√£i Ch√°y, H·∫° Long, Qu·∫£ng Ninh, Vietnam",
    "city": "Ha Long Bay",
    "phone": "+84 343 885 585",
    "website": null,
    "rating": 5,
    "reviewCount": 4,
    "category": "Spa",
    "location": {
      "lat": 20.954423,
      "lng": 107.022562
    },
    "scrapedAt": "2025-08-07T07:39:37.851Z",
    "district": "B√£i Ch√°y",
    "districtOrWard": "B√£i Ch√°y",
    "combinedScore": 3.5599999999999996,
    "processedAt": "2025-08-07T11:12:01.195Z",
    "dataQuality": {
      "hasPhone": true,
      "hasWebsite": false,
      "hasRating": true,
      "hasDistrict": true,
      "hasLocation": true
    }
  },
  {
    "id": "ha-long-bay-81",
    "name": "Zen Spa & Beauty",
    "address": "D5-05, Khu ƒë√¥ th·ªã Monbay, H·∫° Long, Qu·∫£ng Ninh 01100, Vietnam",
    "city": "Ha Long Bay",
    "phone": "+84 963 187 570",
    "website": null,
    "rating": 5,
    "reviewCount": 1,
    "category": "Spa",
    "location": {
      "lat": 20.9498463,
      "lng": 107.1002658
    },
    "scrapedAt": "2025-08-07T07:39:37.851Z",
    "district": "H·∫° Long",
    "districtOrWard": "H·∫° Long",
    "combinedScore": 3.5149999999999997,
    "processedAt": "2025-08-07T11:12:01.195Z",
    "dataQuality": {
      "hasPhone": true,
      "hasWebsite": false,
      "hasRating": true,
      "hasDistrict": true,
      "hasLocation": true
    }
  },
  {
    "id": "ha-long-bay-82",
    "name": "Thu H∆∞·ªùng Beauty Spa",
    "address": "W4X2+FM7, H·ªìng H·∫£i, H·∫° Long, Qu·∫£ng Ninh, Vietnam",
    "city": "Ha Long Bay",
    "phone": null,
    "website": null,
    "rating": null,
    "reviewCount": 0,
    "category": "Spa",
    "location": {
      "lat": 20.9486604,
      "lng": 107.1016651
    },
    "scrapedAt": "2025-08-07T07:39:37.851Z",
    "district": "H·ªìng H·∫£i",
    "districtOrWard": "H·ªìng H·∫£i",
    "combinedScore": 0,
    "processedAt": "2025-08-07T11:12:01.195Z",
    "dataQuality": {
      "hasPhone": false,
      "hasWebsite": false,
      "hasRating": false,
      "hasDistrict": true,
      "hasLocation": true
    }
  },
  {
    "id": "ha-long-bay-83",
    "name": "Misaki Spa",
    "address": "W4X2+9F2, H·ªìng H·∫£i, H·∫° Long, Qu·∫£ng Ninh, Vietnam",
    "city": "Ha Long Bay",
    "phone": "+84 906 169 696",
    "website": null,
    "rating": 5,
    "reviewCount": 2,
    "category": "Spa",
    "location": {
      "lat": 20.9483841,
      "lng": 107.1011365
    },
    "scrapedAt": "2025-08-07T07:39:37.851Z",
    "district": "H·ªìng H·∫£i",
    "districtOrWard": "H·ªìng H·∫£i",
    "combinedScore": 3.53,
    "processedAt": "2025-08-07T11:12:01.195Z",
    "dataQuality": {
      "hasPhone": true,
      "hasWebsite": false,
      "hasRating": true,
      "hasDistrict": true,
      "hasLocation": true
    }
  },
  {
    "id": "ha-long-bay-84",
    "name": "Ph√∫c Khang Spa",
    "address": "19 05, Khu ƒê√¥ Th·ªã Mon Bay, H·∫° Long, Qu·∫£ng Ninh, Vietnam",
    "city": "Ha Long Bay",
    "phone": "+84 965 381 558",
    "website": null,
    "rating": 5,
    "reviewCount": 1,
    "category": "Spa",
    "location": {
      "lat": 20.948562,
      "lng": 107.10145
    },
    "scrapedAt": "2025-08-07T07:39:37.851Z",
    "district": "H·∫° Long",
    "districtOrWard": "H·∫° Long",
    "combinedScore": 3.5149999999999997,
    "processedAt": "2025-08-07T11:12:01.195Z",
    "dataQuality": {
      "hasPhone": true,
      "hasWebsite": false,
      "hasRating": true,
      "hasDistrict": true,
      "hasLocation": true
    }
  },
  {
    "id": "ha-long-bay-85",
    "name": "T·∫©m Qu·∫•t V√¢n Hoa",
    "address": "54 Anh ƒê√†o, B√£i Ch√°y, H·∫° Long, Qu·∫£ng Ninh, Vietnam",
    "city": "Ha Long Bay",
    "phone": "+84 912 104 595",
    "website": null,
    "rating": 3.7,
    "reviewCount": 7,
    "category": "Thai massage therapist",
    "location": {
      "lat": 20.9582926,
      "lng": 107.0511004
    },
    "scrapedAt": "2025-08-07T07:39:37.851Z",
    "district": "B√£i Ch√°y",
    "districtOrWard": "B√£i Ch√°y",
    "combinedScore": 2.6950000000000003,
    "processedAt": "2025-08-07T11:12:01.195Z",
    "dataQuality": {
      "hasPhone": true,
      "hasWebsite": false,
      "hasRating": true,
      "hasDistrict": true,
      "hasLocation": true
    }
  },
  {
    "id": "ha-long-bay-86",
    "name": "KLC - C·ª≠a H√†ng Gh·∫ø Massage Ch√≠nh H√£ng",
    "address": "450 Nguy·ªÖn VƒÉn C·ª´, P, H·∫° Long, Qu·∫£ng Ninh 01110, Vietnam",
    "city": "Ha Long Bay",
    "phone": "+84 704 100 888",
    "website": "https://ghemassageklc.com/",
    "rating": 5,
    "reviewCount": 23,
    "category": "Massage supply store",
    "location": {
      "lat": 20.9486604,
      "lng": 107.1069126
    },
    "scrapedAt": "2025-08-07T07:39:37.851Z",
    "district": "H·∫° Long",
    "districtOrWard": "H·∫° Long",
    "combinedScore": 3.8449999999999998,
    "processedAt": "2025-08-07T11:12:01.195Z",
    "dataQuality": {
      "hasPhone": true,
      "hasWebsite": true,
      "hasRating": true,
      "hasDistrict": true,
      "hasLocation": true
    }
  },
  {
    "id": "ha-long-bay-87",
    "name": "Massage Ch√¢n",
    "address": "W4Q8+R63, ƒê∆∞·ªùng Kh√¥ng T√™n, H·ªìng H√†, H·∫° Long, Qu·∫£ng Ninh, Vietnam",
    "city": "Ha Long Bay",
    "phone": null,
    "website": null,
    "rating": 4,
    "reviewCount": 5,
    "category": "Foot massage parlor",
    "location": {
      "lat": 20.9395175,
      "lng": 107.1155613
    },
    "scrapedAt": "2025-08-07T07:39:37.851Z",
    "district": "H·∫° Long",
    "districtOrWard": "H·∫° Long",
    "combinedScore": 2.875,
    "processedAt": "2025-08-07T11:12:01.195Z",
    "dataQuality": {
      "hasPhone": false,
      "hasWebsite": false,
      "hasRating": true,
      "hasDistrict": true,
      "hasLocation": true
    }
  },
  {
    "id": "ha-long-bay-88",
    "name": "Trung T√¢m V·∫≠t L√≠ Tr·ªã Li·ªáu C∆° X∆∞∆°ng Kh·ªõp ATC",
    "address": "577 L√™ Th√°nh T√¥ng, P. B·∫°ch ƒê·∫±ng, H·∫° Long, Qu·∫£ng Ninh, Vietnam",
    "city": "Ha Long Bay",
    "phone": "+84 983 451 929",
    "website": "https://www.facebook.com/coxuongkhopATC/",
    "rating": 5,
    "reviewCount": 4,
    "category": "Massage therapist",
    "location": {
      "lat": 20.9514629,
      "lng": 107.0865479
    },
    "scrapedAt": "2025-08-07T07:39:37.851Z",
    "district": "H·∫° Long",
    "districtOrWard": "H·∫° Long",
    "combinedScore": 3.5599999999999996,
    "processedAt": "2025-08-07T11:12:01.195Z",
    "dataQuality": {
      "hasPhone": true,
      "hasWebsite": true,
      "hasRating": true,
      "hasDistrict": true,
      "hasLocation": true
    }
  },
  {
    "id": "ha-long-bay-89",
    "name": "CHEEBUI CLINIC",
    "address": "D07-02, khu ƒë√¥ th·ªã Monbay, H·∫° Long, Qu·∫£ng Ninh, Vietnam",
    "city": "Ha Long Bay",
    "phone": "+84 865 666 816",
    "website": null,
    "rating": 5,
    "reviewCount": 1,
    "category": "Facial spa",
    "location": {
      "lat": 20.9496343,
      "lng": 107.100312
    },
    "scrapedAt": "2025-08-07T07:39:37.851Z",
    "district": "H·∫° Long",
    "districtOrWard": "H·∫° Long",
    "combinedScore": 3.5149999999999997,
    "processedAt": "2025-08-07T11:12:01.196Z",
    "dataQuality": {
      "hasPhone": true,
      "hasWebsite": false,
      "hasRating": true,
      "hasDistrict": true,
      "hasLocation": true
    }
  },
  {
    "id": "ha-long-bay-90",
    "name": "ƒê√¥ng Y tr·ªã li·ªáu - Y ng·∫£i ƒë∆∞·ªùng hoa",
    "address": "37 H·∫£i H√†, H·ªìng H·∫£i, H·∫° Long, Qu·∫£ng Ninh 200000, Vietnam",
    "city": "Ha Long Bay",
    "phone": "+84 937 818 626",
    "website": null,
    "rating": 5,
    "reviewCount": 2,
    "category": "Massage therapist",
    "location": {
      "lat": 20.9434087,
      "lng": 107.1091129
    },
    "scrapedAt": "2025-08-07T07:39:37.851Z",
    "district": "H·ªìng H·∫£i",
    "districtOrWard": "H·ªìng H·∫£i",
    "combinedScore": 3.53,
    "processedAt": "2025-08-07T11:12:01.196Z",
    "dataQuality": {
      "hasPhone": true,
      "hasWebsite": false,
      "hasRating": true,
      "hasDistrict": true,
      "hasLocation": true
    }
  },
  {
    "id": "ha-long-bay-91",
    "name": "Alaya Wellness Spa",
    "address": "A1205 - Khu ƒë√¥ th·ªã Monbay, H·∫£i Ph√∫c, H·ªìng H·∫£i, Tp. H·∫° Long, Qu·∫£ng Ninh 200000, Vietnam",
    "city": "Ha Long Bay",
    "phone": "+84 965 105 099",
    "website": "https://www.facebook.com/Chiendan.Official",
    "rating": 5,
    "reviewCount": 34,
    "category": "Health and beauty shop",
    "location": {
      "lat": 20.9490496,
      "lng": 107.1014579
    },
    "scrapedAt": "2025-08-07T07:39:37.851Z",
    "district": "H·ªìng H·∫£i",
    "districtOrWard": "H·ªìng H·∫£i",
    "combinedScore": 4.01,
    "processedAt": "2025-08-07T11:12:01.196Z",
    "dataQuality": {
      "hasPhone": true,
      "hasWebsite": true,
      "hasRating": true,
      "hasDistrict": true,
      "hasLocation": true
    }
  },
  {
    "id": "ha-long-bay-92",
    "name": "Xo√°",
    "address": "A7-04 MonBay, H·ªìng H√†, H·∫° Long, Qu·∫£ng Ninh, Vietnam",
    "city": "Ha Long Bay",
    "phone": "+84 336 026 629",
    "website": null,
    "rating": 5,
    "reviewCount": 1,
    "category": "Massage spa",
    "location": {
      "lat": 20.9494822,
      "lng": 107.0992152
    },
    "scrapedAt": "2025-08-07T07:39:37.851Z",
    "district": "H·∫° Long",
    "districtOrWard": "H·∫° Long",
    "combinedScore": 3.5149999999999997,
    "processedAt": "2025-08-07T11:12:01.196Z",
    "dataQuality": {
      "hasPhone": true,
      "hasWebsite": false,
      "hasRating": true,
      "hasDistrict": true,
      "hasLocation": true
    }
  },
  {
    "id": "ha-long-bay-93",
    "name": "VNS Vietnam Sport Therapy",
    "address": "A19-05, Khu ƒë√¥ th·ªã Monbay, H·∫° Long, Qu·∫£ng Ninh, Vietnam",
    "city": "Ha Long Bay",
    "phone": "+84 849 139 931",
    "website": null,
    "rating": 5,
    "reviewCount": 15,
    "category": "Wellness center",
    "location": {
      "lat": 20.9484998,
      "lng": 107.1015877
    },
    "scrapedAt": "2025-08-07T07:39:37.851Z",
    "district": "H·∫° Long",
    "districtOrWard": "H·∫° Long",
    "combinedScore": 3.725,
    "processedAt": "2025-08-07T11:12:01.196Z",
    "dataQuality": {
      "hasPhone": true,
      "hasWebsite": false,
      "hasRating": true,
      "hasDistrict": true,
      "hasLocation": true
    }
  },
  {
    "id": "ha-long-bay-94",
    "name": "Ph·∫°m Ph·∫°m Spa",
    "address": "22 H·ªìng Ng·ªçc, P. B·∫°ch ƒê·∫±ng, H·∫° Long, Qu·∫£ng Ninh, Vietnam",
    "city": "Ha Long Bay",
    "phone": "+84 984 220 498",
    "website": null,
    "rating": null,
    "reviewCount": 0,
    "category": "Spa",
    "location": {
      "lat": 20.9506052,
      "lng": 107.0818098
    },
    "scrapedAt": "2025-08-07T07:39:37.851Z",
    "district": "H·∫° Long",
    "districtOrWard": "H·∫° Long",
    "combinedScore": 0,
    "processedAt": "2025-08-07T11:12:01.196Z",
    "dataQuality": {
      "hasPhone": true,
      "hasWebsite": false,
      "hasRating": false,
      "hasDistrict": true,
      "hasLocation": true
    }
  },
  {
    "id": "ha-long-bay-95",
    "name": "Thi·ªán T√¢m An - D∆∞·ª°ng Sinh ƒê√¥ng Y",
    "address": "77 Kim ƒê·ªìng, H·ªìng H√†, H·∫° Long, Qu·∫£ng Ninh 20000, Vietnam",
    "city": "Ha Long Bay",
    "phone": "+84 971 270 871",
    "website": "https://www.facebook.com/thientamanduongsinhdongy",
    "rating": 4,
    "reviewCount": 3,
    "category": "Health spa",
    "location": {
      "lat": 20.941765,
      "lng": 107.1167475
    },
    "scrapedAt": "2025-08-07T07:39:37.851Z",
    "district": "H·∫° Long",
    "districtOrWard": "H·∫° Long",
    "combinedScore": 2.8449999999999998,
    "processedAt": "2025-08-07T11:12:01.196Z",
    "dataQuality": {
      "hasPhone": true,
      "hasWebsite": true,
      "hasRating": true,
      "hasDistrict": true,
      "hasLocation": true
    }
  },
  {
    "id": "ha-long-bay-96",
    "name": "Spa Aroma - S·ªë 1 H·∫° Long",
    "address": "W4V6+56C, L·ª•c Ch√¢u, H·∫° Long, Qu·∫£ng Ninh, Vietnam",
    "city": "Ha Long Bay",
    "phone": "+84 915 501 886",
    "website": null,
    "rating": null,
    "reviewCount": 0,
    "category": "Spa",
    "location": {
      "lat": 20.9429325,
      "lng": 107.1105302
    },
    "scrapedAt": "2025-08-07T07:39:37.851Z",
    "district": "H·∫° Long",
    "districtOrWard": "H·∫° Long",
    "combinedScore": 0,
    "processedAt": "2025-08-07T11:12:01.196Z",
    "dataQuality": {
      "hasPhone": true,
      "hasWebsite": false,
      "hasRating": false,
      "hasDistrict": true,
      "hasLocation": true
    }
  },
  {
    "id": "ha-long-bay-97",
    "name": "Thu Phuong Clinic Spa",
    "address": "A1-05 monbay, Tr·∫ßn Qu·ªëc Nghi·ªÖn, H·ªìng H·∫£i, H·∫° Long, Qu·∫£ng Ninh, Vietnam",
    "city": "Ha Long Bay",
    "phone": "+84 812 035 999",
    "website": "https://www.facebook.com/thuphuongspa1?mibextid=LQQJ4d",
    "rating": null,
    "reviewCount": 0,
    "category": "Beauty salon",
    "location": {
      "lat": 20.9496793,
      "lng": 107.0956703
    },
    "scrapedAt": "2025-08-07T07:39:37.851Z",
    "district": "H·ªìng H·∫£i",
    "districtOrWard": "H·ªìng H·∫£i",
    "combinedScore": 0,
    "processedAt": "2025-08-07T11:12:01.196Z",
    "dataQuality": {
      "hasPhone": true,
      "hasWebsite": true,
      "hasRating": false,
      "hasDistrict": true,
      "hasLocation": true
    }
  },
  {
    "id": "ha-long-bay-98",
    "name": "ROSA VU - Spa & Beauty Center",
    "address": "13 L·ª•c Ch√¢u, Khu 8, H·∫° Long, Qu·∫£ng Ninh 01100, Vietnam",
    "city": "Ha Long Bay",
    "phone": "+84 376 366 366",
    "website": null,
    "rating": 5,
    "reviewCount": 5,
    "category": "Beauty salon",
    "location": {
      "lat": 20.9428872,
      "lng": 107.1105324
    },
    "scrapedAt": "2025-08-07T07:39:37.851Z",
    "district": "H·∫° Long",
    "districtOrWard": "H·∫° Long",
    "combinedScore": 3.5749999999999997,
    "processedAt": "2025-08-07T11:12:01.196Z",
    "dataQuality": {
      "hasPhone": true,
      "hasWebsite": false,
      "hasRating": true,
      "hasDistrict": true,
      "hasLocation": true
    }
  },
  {
    "id": "ha-long-bay-99",
    "name": "Trung T√¢m ƒê√¥ng Y H∆∞∆°ng Tuy·∫øt ( Massage therapy )",
    "address": "8 Chu VƒÉn T√¢n, H·ªìng H·∫£i, H·∫° Long, Qu·∫£ng Ninh, Vietnam",
    "city": "Ha Long Bay",
    "phone": "+84 965 265 655",
    "website": "https://www.facebook.com/share/1EeSxjeDxJ/?mibextid=wwXIfr",
    "rating": 5,
    "reviewCount": 4,
    "category": "Physical therapist",
    "location": {
      "lat": 20.9479213,
      "lng": 107.1035166
    },
    "scrapedAt": "2025-08-07T07:39:37.851Z",
    "district": "H·ªìng H·∫£i",
    "districtOrWard": "H·ªìng H·∫£i",
    "combinedScore": 3.5599999999999996,
    "processedAt": "2025-08-07T11:12:01.196Z",
    "dataQuality": {
      "hasPhone": true,
      "hasWebsite": true,
      "hasRating": true,
      "hasDistrict": true,
      "hasLocation": true
    }
  },
  {
    "id": "ha-long-bay-100",
    "name": "B·∫£o Khang - Tr·ªã li·ªáu D∆∞·ª°ng sinh ƒê√¥ng y",
    "address": "S·ªë A6-09 KƒêT Monbay, Tp. H·∫° Long, Qu·∫£ng Ninh 200000, Vietnam",
    "city": "Ha Long Bay",
    "phone": "+84 936 977 168",
    "website": null,
    "rating": 5,
    "reviewCount": 1,
    "category": "Medical spa",
    "location": {
      "lat": 20.9490811,
      "lng": 107.0990951
    },
    "scrapedAt": "2025-08-07T07:39:37.851Z",
    "district": "H·∫° Long",
    "districtOrWard": "H·∫° Long",
    "combinedScore": 3.5149999999999997,
    "processedAt": "2025-08-07T11:12:01.196Z",
    "dataQuality": {
      "hasPhone": true,
      "hasWebsite": false,
      "hasRating": true,
      "hasDistrict": true,
      "hasLocation": true
    }
  }
]