[
  {
    "id": "hoi-an-lemon-spa-massage-hoi-an",
    "name": "Lemon Spa & Massage Hoi An",
    "address": "102 Nguyễn Duy Hiệu, Cẩm Châu, Hội An, Quảng Nam 550000, Vietnam",
    "city": "Hoi An",
    "phone": "+84 969 764 887",
    "website": "https://lemonspahoian.com/",
    "rating": 5,
    "reviewCount": 651,
    "priceLevel": null,
    "category": "Massage spa",
    "description": null,
    "imageUrl": "https://lh3.googleusercontent.com/p/AF1QipNbTF_otMZLvYmH3e8adVg9OV1f85ncUuFa8KCe=w408-h544-k-no",
    "location": {
      "lat": 15.8820725,
      "lng": 108.3493858
    },
    "hours": [
      {
        "day": "Monday",
        "hours": "9 AM to 10 PM"
      },
      {
        "day": "Tuesday",
        "hours": "9 AM to 10 PM"
      },
      {
        "day": "Wednesday",
        "hours": "9 AM to 10 PM"
      },
      {
        "day": "Thursday",
        "hours": "9 AM to 10 PM"
      },
      {
        "day": "Friday",
        "hours": "9 AM to 10 PM"
      },
      {
        "day": "Saturday",
        "hours": "9 AM to 10 PM"
      },
      {
        "day": "Sunday",
        "hours": "9 AM to 10 PM"
      }
    ],
    "scrapedAt": "2025-08-07T10:44:01.398Z",
    "source": "apify-google-maps",
    "district": "Cẩm Châu",
    "districtOrWard": "Cẩm Châu",
    "combinedScore": 5,
    "processedAt": "2025-08-07T11:12:01.201Z",
    "dataQuality": {
      "hasPhone": true,
      "hasWebsite": true,
      "hasRating": true,
      "hasDistrict": true,
      "hasLocation": true
    }
  },
  {
    "id": "hoi-an-net-spa-massage-hoi-an",
    "name": "Net spa Massage Hoi an",
    "address": "77B Nguyễn Duy Hiệu, Cẩm Châu, Hội An, Quảng Nam 56000, Vietnam",
    "city": "Hoi An",
    "phone": "+84 982 385 821",
    "website": "https://www.netspahoian.com/",
    "rating": 5,
    "reviewCount": 321,
    "priceLevel": null,
    "category": "Massage spa",
    "description": null,
    "imageUrl": "https://lh3.googleusercontent.com/p/AF1QipN4tozjRCi3ZH-2IvD1sjVoehb3zO-LcpsJFM6F=w408-h271-k-no",
    "location": {
      "lat": 15.8821409,
      "lng": 108.3499282
    },
    "hours": [
      {
        "day": "Monday",
        "hours": "8 AM to 11 PM"
      },
      {
        "day": "Tuesday",
        "hours": "8 AM to 11 PM"
      },
      {
        "day": "Wednesday",
        "hours": "8 AM to 11 PM"
      },
      {
        "day": "Thursday",
        "hours": "8 AM to 11 PM"
      },
      {
        "day": "Friday",
        "hours": "8 AM to 11 PM"
      },
      {
        "day": "Saturday",
        "hours": "8 AM to 11 PM"
      },
      {
        "day": "Sunday",
        "hours": "8 AM to 11 PM"
      }
    ],
    "scrapedAt": "2025-08-07T10:44:01.404Z",
    "source": "apify-google-maps",
    "district": "Cẩm Châu",
    "districtOrWard": "Cẩm Châu",
    "combinedScore": 5,
    "processedAt": "2025-08-07T11:12:01.201Z",
    "dataQuality": {
      "hasPhone": true,
      "hasWebsite": true,
      "hasRating": true,
      "hasDistrict": true,
      "hasLocation": true
    }
  },
  {
    "id": "hoi-an-metta-spa-massage-hoi-an",
    "name": "Metta Spa & Massage Hoi An",
    "address": "54 Đường Phan Bội Châu, Cẩm Châu, Hội An, Quảng Nam, Vietnam",
    "city": "Hoi An",
    "phone": "+84 906 498 168",
    "website": "https://mettaspahoian.com/",
    "rating": 5,
    "reviewCount": 1561,
    "priceLevel": null,
    "category": "Spa",
    "description": null,
    "imageUrl": "https://lh3.googleusercontent.com/gps-cs-s/AC9h4nrPxJJ_JQ76fHfHBh35LiJExrn-JoeEV_dARldQD81CRXnRr4ywu06jUJZajUYOtCyymgIVwl2YLYTgXWkyEGYpoo9Om3ZpIT5kTz1JeInmCBOjhFTgyJf5usya9x_nXcOljU5mZA=w408-h247-k-no",
    "location": {
      "lat": 15.8768807,
      "lng": 108.3335086
    },
    "hours": [
      {
        "day": "Monday",
        "hours": "9 AM to 10 PM"
      },
      {
        "day": "Tuesday",
        "hours": "9 AM to 10 PM"
      },
      {
        "day": "Wednesday",
        "hours": "9 AM to 10 PM"
      },
      {
        "day": "Thursday",
        "hours": "9 AM to 10 PM"
      },
      {
        "day": "Friday",
        "hours": "9 AM to 10 PM"
      },
      {
        "day": "Saturday",
        "hours": "9 AM to 10 PM"
      },
      {
        "day": "Sunday",
        "hours": "9 AM to 10 PM"
      }
    ],
    "scrapedAt": "2025-08-07T10:44:01.404Z",
    "source": "apify-google-maps",
    "district": "Cẩm Châu",
    "districtOrWard": "Cẩm Châu",
    "combinedScore": 5,
    "processedAt": "2025-08-07T11:12:01.201Z",
    "dataQuality": {
      "hasPhone": true,
      "hasWebsite": true,
      "hasRating": true,
      "hasDistrict": true,
      "hasLocation": true
    }
  },
  {
    "id": "hoi-an-relaxation-spa-and-massage-hoi-an",
    "name": "Relaxation Spa and Massage Hoi An",
    "address": "30 La Hối, An Hội, Hội An, Quảng Nam, Vietnam",
    "city": "Hoi An",
    "phone": "+84 905 933 243",
    "website": null,
    "rating": 4.8,
    "reviewCount": 37,
    "priceLevel": null,
    "category": "Massage spa",
    "description": null,
    "imageUrl": "https://lh3.googleusercontent.com/p/AF1QipMkJ__mlsw45dqUIrrVlJAqiN7LswVN79oJrW4-=w408-h546-k-no",
    "location": {
      "lat": 15.8758658,
      "lng": 108.3243715
    },
    "hours": [
      {
        "day": "Monday",
        "hours": "8:30 AM to 11:30 PM"
      },
      {
        "day": "Tuesday",
        "hours": "8:30 AM to 11:30 PM"
      },
      {
        "day": "Wednesday",
        "hours": "8:30 AM to 11:30 PM"
      },
      {
        "day": "Thursday",
        "hours": "8:30 AM to 11:30 PM"
      },
      {
        "day": "Friday",
        "hours": "8:30 AM to 11:30 PM"
      },
      {
        "day": "Saturday",
        "hours": "8:30 AM to 11:30 PM"
      },
      {
        "day": "Sunday",
        "hours": "8:30 AM to 11:30 PM"
      }
    ],
    "scrapedAt": "2025-08-07T10:44:01.404Z",
    "source": "apify-google-maps",
    "district": "Unknown",
    "districtOrWard": "Unknown",
    "combinedScore": 3.9149999999999996,
    "processedAt": "2025-08-07T11:12:01.202Z",
    "dataQuality": {
      "hasPhone": true,
      "hasWebsite": false,
      "hasRating": true,
      "hasDistrict": true,
      "hasLocation": true
    }
  },
  {
    "id": "hoi-an-agarwood-spa-massage-hoi-an",
    "name": "Agarwood Spa & Massage Hoi An",
    "address": "21 Đ. Tiểu La, Cẩm Châu, Hội An, Quảng Nam 56000, Vietnam",
    "city": "Hoi An",
    "phone": "+84 905 011 044",
    "website": "http://agarwoodspahoian.com/",
    "rating": 5,
    "reviewCount": 411,
    "priceLevel": null,
    "category": "Massage spa",
    "description": null,
    "imageUrl": "https://lh3.googleusercontent.com/p/AF1QipP1-LrR8mji9B8JeTZKSkzohVsP_-UvRxF7FYJD=w408-h306-k-no",
    "location": {
      "lat": 15.8769332,
      "lng": 108.3314517
    },
    "hours": [
      {
        "day": "Monday",
        "hours": "9 AM to 11:30 PM"
      },
      {
        "day": "Tuesday",
        "hours": "9 AM to 11:30 PM"
      },
      {
        "day": "Wednesday",
        "hours": "9 AM to 11:30 PM"
      },
      {
        "day": "Thursday",
        "hours": "9 AM to 11:30 PM"
      },
      {
        "day": "Friday",
        "hours": "9 AM to 11:30 PM"
      },
      {
        "day": "Saturday",
        "hours": "9 AM to 11:30 PM"
      },
      {
        "day": "Sunday",
        "hours": "9 AM to 11:30 PM"
      }
    ],
    "scrapedAt": "2025-08-07T10:44:01.404Z",
    "source": "apify-google-maps",
    "district": "Cẩm Châu",
    "districtOrWard": "Cẩm Châu",
    "combinedScore": 5,
    "processedAt": "2025-08-07T11:12:01.202Z",
    "dataQuality": {
      "hasPhone": true,
      "hasWebsite": true,
      "hasRating": true,
      "hasDistrict": true,
      "hasLocation": true
    }
  },
  {
    "id": "hoi-an-serene-spa-massage-hoi-an-branch",
    "name": "Serene Spa & Massage - Hoi An Branch",
    "address": "06 Hoàng Diệu, Phường Minh An, Hội An, Quảng Nam 560000, Vietnam",
    "city": "Hoi An",
    "phone": "+84 888 183 368",
    "website": "https://serenespa.vn/",
    "rating": 5,
    "reviewCount": 2242,
    "priceLevel": null,
    "category": "Massage spa",
    "description": null,
    "imageUrl": "https://lh3.googleusercontent.com/p/AF1QipM2AqKMRiZjebYlrEhM6QWypiCv73UktqlElBjp=w408-h272-k-no",
    "location": {
      "lat": 15.8787139,
      "lng": 108.3321983
    },
    "hours": [
      {
        "day": "Monday",
        "hours": "10 AM to 10 PM"
      },
      {
        "day": "Tuesday",
        "hours": "10 AM to 10 PM"
      },
      {
        "day": "Wednesday",
        "hours": "10 AM to 10 PM"
      },
      {
        "day": "Thursday",
        "hours": "10 AM to 10 PM"
      },
      {
        "day": "Friday",
        "hours": "10 AM to 10 PM"
      },
      {
        "day": "Saturday",
        "hours": "10 AM to 10 PM"
      },
      {
        "day": "Sunday",
        "hours": "10 AM to 10 PM"
      }
    ],
    "scrapedAt": "2025-08-07T10:44:01.404Z",
    "source": "apify-google-maps",
    "district": "Minh An",
    "districtOrWard": "Minh An",
    "combinedScore": 5,
    "processedAt": "2025-08-07T11:12:01.202Z",
    "dataQuality": {
      "hasPhone": true,
      "hasWebsite": true,
      "hasRating": true,
      "hasDistrict": true,
      "hasLocation": true
    }
  },
  {
    "id": "hoi-an-pho-spa-massage-for-men-and-women",
    "name": "Pho Spa Massage For Men And Women",
    "address": "02/18 Đường Lê Lợi, Phường Minh An, Hội An, Quảng Nam 51000, Vietnam",
    "city": "Hoi An",
    "phone": "+84 339 618 786",
    "website": "https://www.facebook.com/people/Pho-Spa-Massage-Hoi-An/100082672443616/?locale=en_GB",
    "rating": 5,
    "reviewCount": 434,
    "priceLevel": null,
    "category": "Massage spa",
    "description": null,
    "imageUrl": "https://lh3.googleusercontent.com/p/AF1QipNdGW6GIGwiLI4oZ-ohp1WGREi_AdLPcG00F6nF=w408-h306-k-no",
    "location": {
      "lat": 15.8794164,
      "lng": 108.328509
    },
    "hours": [
      {
        "day": "Monday",
        "hours": "9 AM to 10 PM"
      },
      {
        "day": "Tuesday",
        "hours": "9 AM to 10 PM"
      },
      {
        "day": "Wednesday",
        "hours": "9 AM to 10 PM"
      },
      {
        "day": "Thursday",
        "hours": "9 AM to 10 PM"
      },
      {
        "day": "Friday",
        "hours": "9 AM to 10 PM"
      },
      {
        "day": "Saturday",
        "hours": "9 AM to 10 PM"
      },
      {
        "day": "Sunday",
        "hours": "9 AM to 10 PM"
      }
    ],
    "scrapedAt": "2025-08-07T10:44:01.404Z",
    "source": "apify-google-maps",
    "district": "Minh An",
    "districtOrWard": "Minh An",
    "combinedScore": 5,
    "processedAt": "2025-08-07T11:12:01.202Z",
    "dataQuality": {
      "hasPhone": true,
      "hasWebsite": true,
      "hasRating": true,
      "hasDistrict": true,
      "hasLocation": true
    }
  },
  {
    "id": "hoi-an-tina-spa-massage-and-nail-hoi-an",
    "name": "Tina Spa Massage and Nail Hoi An",
    "address": "Lê Lợi, Phường Minh An, Hội An, Quảng Nam 53000, Vietnam",
    "city": "Hoi An",
    "phone": "+84 905 437 283",
    "website": "https://www.tinaspahoian.com/",
    "rating": 4.9,
    "reviewCount": 1915,
    "priceLevel": null,
    "category": "Massage spa",
    "description": null,
    "imageUrl": "https://lh3.googleusercontent.com/gps-cs-s/AC9h4nrWKL_JNabNEDBYww5oZ7lo7goRgtPcwpJQx1MIEwh7JpV6EmuasNi3j63Dc44u0-Y7oWj8E68AQ4_7rrGm9lk3PNS1wRf7h8x7yAVJI0FhOeFFW3CVekb04qfCymvOzjWTPm22=w408-h306-k-no",
    "location": {
      "lat": 15.879412,
      "lng": 108.3283343
    },
    "hours": [
      {
        "day": "Monday",
        "hours": "8 AM to 10 PM"
      },
      {
        "day": "Tuesday",
        "hours": "8 AM to 10 PM"
      },
      {
        "day": "Wednesday",
        "hours": "8 AM to 10 PM"
      },
      {
        "day": "Thursday",
        "hours": "8 AM to 10 PM"
      },
      {
        "day": "Friday",
        "hours": "8 AM to 10 PM"
      },
      {
        "day": "Saturday",
        "hours": "8 AM to 10 PM"
      },
      {
        "day": "Sunday",
        "hours": "8 AM to 10 PM"
      }
    ],
    "scrapedAt": "2025-08-07T10:44:01.404Z",
    "source": "apify-google-maps",
    "district": "Minh An",
    "districtOrWard": "Minh An",
    "combinedScore": 4.93,
    "processedAt": "2025-08-07T11:12:01.202Z",
    "dataQuality": {
      "hasPhone": true,
      "hasWebsite": true,
      "hasRating": true,
      "hasDistrict": true,
      "hasLocation": true
    }
  },
  {
    "id": "hoi-an-massage-ngi-khim-th-hi-an",
    "name": "Massage người khiếm thị Hội An",
    "address": "392 Cửa Đại, Cẩm Châu, Hội An, Quảng Nam, Vietnam",
    "city": "Hoi An",
    "phone": "+84 936 176 235",
    "website": null,
    "rating": 4.7,
    "reviewCount": 52,
    "priceLevel": null,
    "category": "Massage spa",
    "description": null,
    "imageUrl": "https://lh3.googleusercontent.com/gps-cs-s/AC9h4nrTkRokZbFkszUl7A93iJQwh91og6Yfa1jHWoOx0LN7ei03hT9HNeCIC7gwR5cUrQISYKleH-XdWqiSjxfPonqYe7U3c5DuKVhkE9C6Wr2C43LJxvG9UKlT-2SLjlCt4pV--te4nhZ7hEly=w408-h544-k-no",
    "location": {
      "lat": 15.8823374,
      "lng": 108.3456085
    },
    "hours": [
      {
        "day": "Monday",
        "hours": "8 AM to 10 PM"
      },
      {
        "day": "Tuesday",
        "hours": "8 AM to 10 PM"
      },
      {
        "day": "Wednesday",
        "hours": "8 AM to 10 PM"
      },
      {
        "day": "Thursday",
        "hours": "8 AM to 10 PM"
      },
      {
        "day": "Friday",
        "hours": "8 AM to 10 PM"
      },
      {
        "day": "Saturday",
        "hours": "8 AM to 10 PM"
      },
      {
        "day": "Sunday",
        "hours": "8 AM to 10 PM"
      }
    ],
    "scrapedAt": "2025-08-07T10:44:01.404Z",
    "source": "apify-google-maps",
    "district": "Cẩm Châu",
    "districtOrWard": "Cẩm Châu",
    "combinedScore": 4.07,
    "processedAt": "2025-08-07T11:12:01.202Z",
    "dataQuality": {
      "hasPhone": true,
      "hasWebsite": false,
      "hasRating": true,
      "hasDistrict": true,
      "hasLocation": true
    }
  },
  {
    "id": "hoi-an-abdominal-massagechinese-medicine-wellness-luna-diaz",
    "name": "Abdominal Massage.Chinese Medicine. Wellness (LUNA DIAZ)",
    "address": "ĐX17, Cẩm Thanh, Hội An, Quảng Nam, Vietnam",
    "city": "Hoi An",
    "phone": "+84 397 990 632",
    "website": "http://lunadiaz.tilda.ws/therapies",
    "rating": 5,
    "reviewCount": 13,
    "priceLevel": null,
    "category": "Massage therapist",
    "description": null,
    "imageUrl": "https://lh3.googleusercontent.com/p/AF1QipNWwDTBzB04xb-QT8LSYITPzBEIbB_zbyZqDZNi=w408-h725-k-no",
    "location": {
      "lat": 15.8765044,
      "lng": 108.3600193
    },
    "hours": [
      {
        "day": "Monday",
        "hours": "7 AM to 6 PM"
      },
      {
        "day": "Tuesday",
        "hours": "7 AM to 6 PM"
      },
      {
        "day": "Wednesday",
        "hours": "7 AM to 6 PM"
      },
      {
        "day": "Thursday",
        "hours": "7 AM to 6 PM"
      },
      {
        "day": "Friday",
        "hours": "7 AM to 6 PM"
      },
      {
        "day": "Saturday",
        "hours": "7 AM to 6 PM"
      },
      {
        "day": "Sunday",
        "hours": "7 AM to 12 PM"
      }
    ],
    "scrapedAt": "2025-08-07T10:44:01.404Z",
    "source": "apify-google-maps",
    "district": "Cẩm Thanh",
    "districtOrWard": "Cẩm Thanh",
    "combinedScore": 3.695,
    "processedAt": "2025-08-07T11:12:01.202Z",
    "dataQuality": {
      "hasPhone": true,
      "hasWebsite": true,
      "hasRating": true,
      "hasDistrict": true,
      "hasLocation": true
    }
  },
  {
    "id": "hoi-an-eco-beauty-spa",
    "name": "ECO BEAUTY SPA",
    "address": "Tổ 1, Hội An, Quảng Nam, Vietnam",
    "city": "Hoi An",
    "phone": "+84 905 414 996",
    "website": null,
    "rating": 5,
    "reviewCount": 11,
    "priceLevel": null,
    "category": "Day spa",
    "description": null,
    "imageUrl": "https://lh3.googleusercontent.com/gps-cs-s/AC9h4nqpTImzQz_MsBTcPVjvkpNs2VWHoDuk4zWoWWJ2P_5sSCzlqJOoPBTlTPjvguRx72zfCahSyB4uSSxSBTpFRwBffrb5Ez3_ULy-eNzOKZhUjSzerX8LT3rMSYvBYEP2Zc_D_odm=w408-h544-k-no",
    "location": {
      "lat": 15.8873302,
      "lng": 108.3609187
    },
    "hours": [
      {
        "day": "Monday",
        "hours": "9 AM to 8 PM"
      },
      {
        "day": "Tuesday",
        "hours": "9 AM to 8 PM"
      },
      {
        "day": "Wednesday",
        "hours": "9 AM to 8 PM"
      },
      {
        "day": "Thursday",
        "hours": "9 AM to 8 PM"
      },
      {
        "day": "Friday",
        "hours": "9 AM to 8 PM"
      },
      {
        "day": "Saturday",
        "hours": "9 AM to 8 PM"
      },
      {
        "day": "Sunday",
        "hours": "9 AM to 8 PM"
      }
    ],
    "scrapedAt": "2025-08-07T10:44:01.404Z",
    "source": "apify-google-maps",
    "district": "Hội An",
    "districtOrWard": "Hội An",
    "combinedScore": 3.665,
    "processedAt": "2025-08-07T11:12:01.202Z",
    "dataQuality": {
      "hasPhone": true,
      "hasWebsite": false,
      "hasRating": true,
      "hasDistrict": true,
      "hasLocation": true
    }
  },
  {
    "id": "hoi-an-bk-beauty-spa-garden-coffee",
    "name": "BK Beauty Spa & Garden Coffee",
    "address": "625 Đ. Hai Bà Trưng, Phường Minh An, Hội An, Quảng Nam, Vietnam",
    "city": "Hoi An",
    "phone": "+84 562 265 786",
    "website": null,
    "rating": 5,
    "reviewCount": 17,
    "priceLevel": null,
    "category": "Spa",
    "description": null,
    "imageUrl": "https://lh3.googleusercontent.com/gps-cs-s/AC9h4np5Uwk_4ztaws0zsf6EmO2jm7agWxE5zb6p-YNRBjPRZz1ZK07T8C26D_8EwZMESrHzCBIiEyt3Lif2lX7UmmS6hqZZZpaL_roYrd0POBocx1YTduzEnXUr3Cvtqj36dbUQC6p_=w408-h306-k-no",
    "location": {
      "lat": 15.8805815,
      "lng": 108.3268352
    },
    "hours": [
      {
        "day": "Monday",
        "hours": "Open 24 hours"
      },
      {
        "day": "Tuesday",
        "hours": "Open 24 hours"
      },
      {
        "day": "Wednesday",
        "hours": "Open 24 hours"
      },
      {
        "day": "Thursday",
        "hours": "Open 24 hours"
      },
      {
        "day": "Friday",
        "hours": "Open 24 hours"
      },
      {
        "day": "Saturday",
        "hours": "Open 24 hours"
      },
      {
        "day": "Sunday",
        "hours": "Open 24 hours"
      }
    ],
    "scrapedAt": "2025-08-07T10:44:01.404Z",
    "source": "apify-google-maps",
    "district": "Minh An",
    "districtOrWard": "Minh An",
    "combinedScore": 3.755,
    "processedAt": "2025-08-07T11:12:01.202Z",
    "dataQuality": {
      "hasPhone": true,
      "hasWebsite": false,
      "hasRating": true,
      "hasDistrict": true,
      "hasLocation": true
    }
  },
  {
    "id": "hoi-an-health-and-beauty-spa",
    "name": "Health and Beauty Spa",
    "address": "450 Cửa Đại, street, Hội An, Quảng Nam, Vietnam",
    "city": "Hoi An",
    "phone": "+84 905 064 174",
    "website": null,
    "rating": 4.9,
    "reviewCount": 10,
    "priceLevel": null,
    "category": "Spa",
    "description": null,
    "imageUrl": "https://lh3.googleusercontent.com/gps-cs-s/AC9h4nqC0D9kJS0RDo8E4HVJsDrflQkhfY4OSAdsIb_ADMfq1YIfwgQSaOxvdZYmlsoksIhKlrnAvf1QVbEv2LVRJlK3MkpTTdz_yVlKxsK2ZnTN7wvxHctcqCsg2_Yz8jPFr_0UKraSRA=w408-h306-k-no",
    "location": {
      "lat": 15.8806899,
      "lng": 108.3429295
    },
    "hours": [
      {
        "day": "Monday",
        "hours": "12 AM to 10 PM"
      },
      {
        "day": "Tuesday",
        "hours": "9 AM to 10 PM"
      },
      {
        "day": "Wednesday",
        "hours": "9 AM to 10 PM"
      },
      {
        "day": "Thursday",
        "hours": "9 AM to 10 PM"
      },
      {
        "day": "Friday",
        "hours": "9 AM to 10 PM"
      },
      {
        "day": "Saturday",
        "hours": "9 AM to 10 PM"
      },
      {
        "day": "Sunday",
        "hours": "9 AM to 12 am"
      }
    ],
    "scrapedAt": "2025-08-07T10:44:01.404Z",
    "source": "apify-google-maps",
    "district": "Unknown",
    "districtOrWard": "Unknown",
    "combinedScore": 3.5800000000000005,
    "processedAt": "2025-08-07T11:12:01.203Z",
    "dataQuality": {
      "hasPhone": true,
      "hasWebsite": false,
      "hasRating": true,
      "hasDistrict": true,
      "hasLocation": true
    }
  },
  {
    "id": "hoi-an-pure-beauty-spa",
    "name": "Pure Beauty Spa",
    "address": "104 Nguyễn Duy Hiệu, Cẩm Châu, Hội An, Quảng Nam, Vietnam",
    "city": "Hoi An",
    "phone": "+84 387 451 111",
    "website": null,
    "rating": 4.5,
    "reviewCount": 60,
    "priceLevel": null,
    "category": "Spa and health club",
    "description": null,
    "imageUrl": "https://lh3.googleusercontent.com/gps-cs-s/AC9h4noSBh3-q00CZGi1JQCZEzAHEQjuNykkJLXIn1a9vNwS8ZLKuE5ZQpe3v2qbo1upea9BWAaknotrBgGMxHeEX3bLooHc2jCIJ8f4jvRaOeCHGd77JgbPfGhLYLaTW_blNoUgnGdx6Q=w408-h544-k-no",
    "location": {
      "lat": 15.8821043,
      "lng": 108.3493879
    },
    "hours": [
      {
        "day": "Monday",
        "hours": "10 AM to 9 PM"
      },
      {
        "day": "Tuesday",
        "hours": "10 AM to 9 PM"
      },
      {
        "day": "Wednesday",
        "hours": "10 AM to 9 PM"
      },
      {
        "day": "Thursday",
        "hours": "10 AM to 9 PM"
      },
      {
        "day": "Friday",
        "hours": "10 AM to 9 PM"
      },
      {
        "day": "Saturday",
        "hours": "10 AM to 9 PM"
      },
      {
        "day": "Sunday",
        "hours": "10 AM to 9 PM"
      }
    ],
    "scrapedAt": "2025-08-07T10:44:01.404Z",
    "source": "apify-google-maps",
    "district": "Cẩm Châu",
    "districtOrWard": "Cẩm Châu",
    "combinedScore": 4.050000000000001,
    "processedAt": "2025-08-07T11:12:01.203Z",
    "dataQuality": {
      "hasPhone": true,
      "hasWebsite": false,
      "hasRating": true,
      "hasDistrict": true,
      "hasLocation": true
    }
  },
  {
    "id": "hoi-an-mt-m-beauty-spa",
    "name": "Một Mí Beauty Spa",
    "address": "96 Nguyễn Du, Phường Cẩm Phổ, Hội An, Quảng Nam, Vietnam",
    "city": "Hoi An",
    "phone": "+84 935 152 668",
    "website": "https://www.facebook.com/profile.php?id=100047549366903",
    "rating": 4.8,
    "reviewCount": 17,
    "priceLevel": null,
    "category": "Spa",
    "description": null,
    "imageUrl": "https://lh3.googleusercontent.com/p/AF1QipPahUSnKKd4ug-BpoZOhKXhzWPJPYYYtVCLsUO1=w408-h282-k-no",
    "location": {
      "lat": 15.8766577,
      "lng": 108.3172309
    },
    "hours": [
      {
        "day": "Monday",
        "hours": "9 AM to 9 PM"
      },
      {
        "day": "Tuesday",
        "hours": "9 AM to 9 PM"
      },
      {
        "day": "Wednesday",
        "hours": "9 AM to 9 PM"
      },
      {
        "day": "Thursday",
        "hours": "9 AM to 9 PM"
      },
      {
        "day": "Friday",
        "hours": "9 AM to 9 PM"
      },
      {
        "day": "Saturday",
        "hours": "9 AM to 9 PM"
      },
      {
        "day": "Sunday",
        "hours": "9 AM to 9 PM"
      }
    ],
    "scrapedAt": "2025-08-07T10:44:01.404Z",
    "source": "apify-google-maps",
    "district": "Cẩm Phô",
    "districtOrWard": "Cẩm Phô",
    "combinedScore": 3.6149999999999998,
    "processedAt": "2025-08-07T11:12:01.203Z",
    "dataQuality": {
      "hasPhone": true,
      "hasWebsite": true,
      "hasRating": true,
      "hasDistrict": true,
      "hasLocation": true
    }
  },
  {
    "id": "hoi-an-ngc-beauty-spa",
    "name": "Ngọc Beauty Spa",
    "address": "10 Trần Bình Trọng, Cẩm Châu, Hội An, Quảng Nam, Vietnam",
    "city": "Hoi An",
    "phone": "+84 973 349 937",
    "website": null,
    "rating": 4.9,
    "reviewCount": 28,
    "priceLevel": null,
    "category": "Beauty Salon",
    "description": null,
    "imageUrl": "https://lh3.googleusercontent.com/p/AF1QipPSTM4HyrIVjQgLay0n7ePOYRZRO02SOXGSjb2u=w408-h382-k-no",
    "location": {
      "lat": 15.8829922,
      "lng": 108.3481276
    },
    "hours": [
      {
        "day": "Monday",
        "hours": "9 AM to 8:30 PM"
      },
      {
        "day": "Tuesday",
        "hours": "9 AM to 8:30 PM"
      },
      {
        "day": "Wednesday",
        "hours": "9 AM to 8:30 PM"
      },
      {
        "day": "Thursday",
        "hours": "9 AM to 8:30 PM"
      },
      {
        "day": "Friday",
        "hours": "9 AM to 8:30 PM"
      },
      {
        "day": "Saturday",
        "hours": "9 AM to 8:30 PM"
      },
      {
        "day": "Sunday",
        "hours": "8:30 AM to 8:30 PM"
      }
    ],
    "scrapedAt": "2025-08-07T10:44:01.405Z",
    "source": "apify-google-maps",
    "district": "Cẩm Châu",
    "districtOrWard": "Cẩm Châu",
    "combinedScore": 3.85,
    "processedAt": "2025-08-07T11:12:01.203Z",
    "dataQuality": {
      "hasPhone": true,
      "hasWebsite": false,
      "hasRating": true,
      "hasDistrict": true,
      "hasLocation": true
    }
  },
  {
    "id": "hoi-an-dip-kh-my-beauty-spa",
    "name": "Diệp Khả My Beauty Spa",
    "address": "350 Cửa Đại, Cẩm Châu, Hội An, Quảng Nam, Vietnam",
    "city": "Hoi An",
    "phone": "+84 786 137 213",
    "website": "https://www.facebook.com/profile.php?id=100051439958832",
    "rating": 5,
    "reviewCount": 10,
    "priceLevel": null,
    "category": "Beauty Salon",
    "description": null,
    "imageUrl": "https://lh3.googleusercontent.com/gps-cs-s/AC9h4nqRbvyQBG2Q-QaVuJAYePLkPT7IZO6Wqqhdvo23SXAa19ZHfQi12MOGmRFs2Fsd4yGC8lR-5xO0-82A9v5Hu14xiv7IOaaxB87C369YKGLfK3OI8TaJQM2ahIpC7trc2mRzo5Ua=w408-h306-k-no",
    "location": {
      "lat": 15.884377,
      "lng": 108.3482506
    },
    "hours": [
      {
        "day": "Monday",
        "hours": "Open 24 hours"
      },
      {
        "day": "Tuesday",
        "hours": "Open 24 hours"
      },
      {
        "day": "Wednesday",
        "hours": "Open 24 hours"
      },
      {
        "day": "Thursday",
        "hours": "Open 24 hours"
      },
      {
        "day": "Friday",
        "hours": "Open 24 hours"
      },
      {
        "day": "Saturday",
        "hours": "Open 24 hours"
      },
      {
        "day": "Sunday",
        "hours": "Open 24 hours"
      }
    ],
    "scrapedAt": "2025-08-07T10:44:01.405Z",
    "source": "apify-google-maps",
    "district": "Cẩm Châu",
    "districtOrWard": "Cẩm Châu",
    "combinedScore": 3.65,
    "processedAt": "2025-08-07T11:12:01.203Z",
    "dataQuality": {
      "hasPhone": true,
      "hasWebsite": true,
      "hasRating": true,
      "hasDistrict": true,
      "hasLocation": true
    }
  },
  {
    "id": "hoi-an-thanh-hin-beauty-spa",
    "name": "Thanh Hiền Beauty Spa",
    "address": "144 Trần Nhân Tông, Cẩm Châu, Hội An, Quảng Nam, Vietnam",
    "city": "Hoi An",
    "phone": "+84 899 886 835",
    "website": null,
    "rating": 5,
    "reviewCount": 15,
    "priceLevel": null,
    "category": "Spa",
    "description": null,
    "imageUrl": "https://lh3.googleusercontent.com/p/AF1QipMzsF9T1XWe5jN6H6cEmG1SxYbxhZ-eocpGxdoM=w426-h240-k-no",
    "location": {
      "lat": 15.8771885,
      "lng": 108.345143
    },
    "hours": [
      {
        "day": "Monday",
        "hours": "Open 24 hours"
      },
      {
        "day": "Tuesday",
        "hours": "Open 24 hours"
      },
      {
        "day": "Wednesday",
        "hours": "Open 24 hours"
      },
      {
        "day": "Thursday",
        "hours": "Open 24 hours"
      },
      {
        "day": "Friday",
        "hours": "Open 24 hours"
      },
      {
        "day": "Saturday",
        "hours": "Open 24 hours"
      },
      {
        "day": "Sunday",
        "hours": "Open 24 hours"
      }
    ],
    "scrapedAt": "2025-08-07T10:44:01.405Z",
    "source": "apify-google-maps",
    "district": "Cẩm Châu",
    "districtOrWard": "Cẩm Châu",
    "combinedScore": 3.725,
    "processedAt": "2025-08-07T11:12:01.203Z",
    "dataQuality": {
      "hasPhone": true,
      "hasWebsite": false,
      "hasRating": true,
      "hasDistrict": true,
      "hasLocation": true
    }
  },
  {
    "id": "hoi-an-happy-day-spa",
    "name": "Happy Day Spa",
    "address": "V8FM+P78, Cầu, Cẩm Nam, Hội An, Quảng Nam, Vietnam",
    "city": "Hoi An",
    "phone": "+84 935 664 121",
    "website": null,
    "rating": 4.8,
    "reviewCount": 14,
    "priceLevel": null,
    "category": "Spa",
    "description": null,
    "imageUrl": "https://lh3.googleusercontent.com/gps-cs-s/AC9h4nq5mtUiQLRR4IKwpGdvkaMbUwmntZ0uS-qjhVMmJH5EydMhOuYVZOORI62abSXp1aYmBVPP5sbyoIg1Ls7p6QSTSLuB3GEXeeANccuzoNG8Hmu1HZTR81UUDjcBaunD_JP59Sqw=w408-h408-k-no",
    "location": {
      "lat": 15.8742928,
      "lng": 108.3332166
    },
    "hours": [
      {
        "day": "Monday",
        "hours": "9 AM to 10 PM"
      },
      {
        "day": "Tuesday",
        "hours": "9 AM to 10 PM"
      },
      {
        "day": "Wednesday",
        "hours": "9 AM to 10 PM"
      },
      {
        "day": "Thursday",
        "hours": "9 AM to 10 PM"
      },
      {
        "day": "Friday",
        "hours": "9 AM to 10 PM"
      },
      {
        "day": "Saturday",
        "hours": "9 AM to 10 PM"
      },
      {
        "day": "Sunday",
        "hours": "9 AM to 10 PM"
      }
    ],
    "scrapedAt": "2025-08-07T10:44:01.405Z",
    "source": "apify-google-maps",
    "district": "Cẩm Nam",
    "districtOrWard": "Cẩm Nam",
    "combinedScore": 3.57,
    "processedAt": "2025-08-07T11:12:01.203Z",
    "dataQuality": {
      "hasPhone": true,
      "hasWebsite": false,
      "hasRating": true,
      "hasDistrict": true,
      "hasLocation": true
    }
  },
  {
    "id": "hoi-an-best-spa",
    "name": "Best Spa",
    "address": "126 Nguyễn Phan Vinh, Cẩm An, Hội An, Quảng Nam 560000, Vietnam",
    "city": "Hoi An",
    "phone": "+84 346 297 779",
    "website": null,
    "rating": 4.9,
    "reviewCount": 876,
    "priceLevel": null,
    "category": "Massage spa",
    "description": null,
    "imageUrl": "https://lh3.googleusercontent.com/gps-cs-s/AC9h4npftCEZEi-ipPaJeS6mJ2ODsDNMym5u4gWrdDYYAN7u-Ec_Cx_iXyAksGHbma5nlLCKDduvNJkFD_onyiuWlFfuYf-alMecfhyPKG233UF_aLTAIBcP_DUydENqVdpD31SDLL-k=w408-h306-k-no",
    "location": {
      "lat": 15.9130019,
      "lng": 108.3387715
    },
    "hours": [
      {
        "day": "Monday",
        "hours": "9 AM to 10 PM"
      },
      {
        "day": "Tuesday",
        "hours": "9 AM to 10 PM"
      },
      {
        "day": "Wednesday",
        "hours": "9 AM to 10 PM"
      },
      {
        "day": "Thursday",
        "hours": "9 AM to 10 PM"
      },
      {
        "day": "Friday",
        "hours": "9 AM to 10 PM"
      },
      {
        "day": "Saturday",
        "hours": "9 AM to 10 PM"
      },
      {
        "day": "Sunday",
        "hours": "9 AM to 10 PM"
      }
    ],
    "scrapedAt": "2025-08-07T10:44:01.405Z",
    "source": "apify-google-maps",
    "district": "Cẩm An",
    "districtOrWard": "Cẩm An",
    "combinedScore": 4.93,
    "processedAt": "2025-08-07T11:12:01.203Z",
    "dataQuality": {
      "hasPhone": true,
      "hasWebsite": false,
      "hasRating": true,
      "hasDistrict": true,
      "hasLocation": true
    }
  },
  {
    "id": "hoi-an-magnolia-spa-massage",
    "name": "MAGNOLIA SPA - MASSAGE",
    "address": "12 Cửa Đại, Hội An, Quảng Nam 51300, Vietnam",
    "city": "Hoi An",
    "phone": "+84 905 855 881",
    "website": null,
    "rating": 4.9,
    "reviewCount": 174,
    "priceLevel": null,
    "category": "Health spa",
    "description": null,
    "imageUrl": "https://lh3.googleusercontent.com/gps-cs-s/AC9h4nr5imxaODuZNjSf9eLaes6h1WzRjWivj985U-faTPxq2C21SD046-n1BqoGhaWy6lljz5IyrXu_nynSchSCUA1799A7Fnoowl5qv0TzPUox11Fi28n1pzJk8Nt2aqjZpNjoilQIkg=w408-h306-k-no",
    "location": {
      "lat": 15.8971461,
      "lng": 108.3650987
    },
    "hours": [
      {
        "day": "Monday",
        "hours": "8:30 AM to 10 PM"
      },
      {
        "day": "Tuesday",
        "hours": "8:30 AM to 10 PM"
      },
      {
        "day": "Wednesday",
        "hours": "8:30 AM to 10 PM"
      },
      {
        "day": "Thursday",
        "hours": "8:30 AM to 10 PM"
      },
      {
        "day": "Friday",
        "hours": "8:30 AM to 10 PM"
      },
      {
        "day": "Saturday",
        "hours": "8:30 AM to 10 PM"
      },
      {
        "day": "Sunday",
        "hours": "8:30 AM to 10 PM"
      }
    ],
    "scrapedAt": "2025-08-07T10:44:01.405Z",
    "source": "apify-google-maps",
    "district": "Unknown",
    "districtOrWard": "Unknown",
    "combinedScore": 4.93,
    "processedAt": "2025-08-07T11:12:01.203Z",
    "dataQuality": {
      "hasPhone": true,
      "hasWebsite": false,
      "hasRating": true,
      "hasDistrict": true,
      "hasLocation": true
    }
  },
  {
    "id": "hoi-an-nachi-spa-1",
    "name": "Nachi Spa 1",
    "address": "55/15 Trần Hưng Đạo, Phường Minh An, Hội An, Quảng Nam 560000, Vietnam",
    "city": "Hoi An",
    "phone": "+84 935 755 399",
    "website": "https://sites.google.com/view/nachispa/home",
    "rating": 4.9,
    "reviewCount": 2208,
    "priceLevel": null,
    "category": "Spa",
    "description": null,
    "imageUrl": "https://lh3.googleusercontent.com/gps-cs-s/AC9h4npX43fiK-jhNwOzJOyVVACHzf3V42ZmhETD3HYUoIKpx1llKzfoOCxRe-ocM9e9as8PBJb3E7PNHqijZ1-VPUI36-xcoG9BUTHD-2iKYx4ImCko3AyKVtdOdBSKYGxtoI9zT8PIXA=w408-h273-k-no",
    "location": {
      "lat": 15.8792937,
      "lng": 108.3280663
    },
    "hours": [
      {
        "day": "Monday",
        "hours": "9 AM to 10 PM"
      },
      {
        "day": "Tuesday",
        "hours": "9 AM to 10 PM"
      },
      {
        "day": "Wednesday",
        "hours": "9 AM to 10 PM"
      },
      {
        "day": "Thursday",
        "hours": "9 AM to 10 PM"
      },
      {
        "day": "Friday",
        "hours": "9 AM to 10 PM"
      },
      {
        "day": "Saturday",
        "hours": "9 AM to 10 PM"
      },
      {
        "day": "Sunday",
        "hours": "9 AM to 10 PM"
      }
    ],
    "scrapedAt": "2025-08-07T10:44:01.405Z",
    "source": "apify-google-maps",
    "district": "Minh An",
    "districtOrWard": "Minh An",
    "combinedScore": 4.93,
    "processedAt": "2025-08-07T11:12:01.203Z",
    "dataQuality": {
      "hasPhone": true,
      "hasWebsite": true,
      "hasRating": true,
      "hasDistrict": true,
      "hasLocation": true
    }
  },
  {
    "id": "hoi-an-art-spa",
    "name": "Art Spa",
    "address": "37 Nguyễn Phúc Tần, Phường Minh An, Hội An, Quảng Nam 560000, Vietnam",
    "city": "Hoi An",
    "phone": "+84 906 488 820",
    "website": "http://artspahoian.com/",
    "rating": 4.9,
    "reviewCount": 1390,
    "priceLevel": null,
    "category": "Massage spa",
    "description": null,
    "imageUrl": "https://lh3.googleusercontent.com/gps-cs-s/AC9h4nqvNeYCpAr_XBv7jAldpG5U7ZjTUnJ29KQNkWJiEGYenbWN-NtA_zUJ_DrWVt6x07RgMIVjDqTOplglVYgf74mxpGWK-pvUuqvLdA8JDi0sKByaIX3tEAkHZNaQ9rKi3cMSggQV=w408-h244-k-no",
    "location": {
      "lat": 15.8752278,
      "lng": 108.3266726
    },
    "hours": [
      {
        "day": "Monday",
        "hours": "10 AM to 10 PM"
      },
      {
        "day": "Tuesday",
        "hours": "10 AM to 10 PM"
      },
      {
        "day": "Wednesday",
        "hours": "10 AM to 10 PM"
      },
      {
        "day": "Thursday",
        "hours": "10 AM to 10 PM"
      },
      {
        "day": "Friday",
        "hours": "10 AM to 10 PM"
      },
      {
        "day": "Saturday",
        "hours": "10 AM to 10 PM"
      },
      {
        "day": "Sunday",
        "hours": "10 AM to 10 PM"
      }
    ],
    "scrapedAt": "2025-08-07T10:44:01.405Z",
    "source": "apify-google-maps",
    "district": "Minh An",
    "districtOrWard": "Minh An",
    "combinedScore": 4.93,
    "processedAt": "2025-08-07T11:12:01.203Z",
    "dataQuality": {
      "hasPhone": true,
      "hasWebsite": true,
      "hasRating": true,
      "hasDistrict": true,
      "hasLocation": true
    }
  },
  {
    "id": "hoi-an-the-castle-spa",
    "name": "The Castle Spa",
    "address": "203 Lý Thường Kiệt, Phường Cẩm Phổ, Hội An, Quảng Nam 560000, Vietnam",
    "city": "Hoi An",
    "phone": "+84 977 032 385",
    "website": "http://thecastlespa.com/",
    "rating": 5,
    "reviewCount": 3752,
    "priceLevel": null,
    "category": "Spa",
    "description": null,
    "imageUrl": "https://lh3.googleusercontent.com/gps-cs-s/AC9h4npfoNFHtGBOd3d9cZZx9bl0pg5lrey8jX6rR_38G6JMs5vuOZLeJJai2snrPLXnvQSF5G0AGZMguzxV2uIl0r6N6IVumHYlx5fb7CZe_V_txDQuPBkWx2zuiCfsz7xxjNkvatXW=w408-h306-k-no",
    "location": {
      "lat": 15.883767,
      "lng": 108.326518
    },
    "hours": [
      {
        "day": "Monday",
        "hours": "8 AM to 11 PM"
      },
      {
        "day": "Tuesday",
        "hours": "8 AM to 11 PM"
      },
      {
        "day": "Wednesday",
        "hours": "8 AM to 11 PM"
      },
      {
        "day": "Thursday",
        "hours": "8 AM to 11 PM"
      },
      {
        "day": "Friday",
        "hours": "8 AM to 11 PM"
      },
      {
        "day": "Saturday",
        "hours": "8 AM to 11 PM"
      },
      {
        "day": "Sunday",
        "hours": "8 AM to 11 PM"
      }
    ],
    "scrapedAt": "2025-08-07T10:44:01.405Z",
    "source": "apify-google-maps",
    "district": "Cẩm Phô",
    "districtOrWard": "Cẩm Phô",
    "combinedScore": 5,
    "processedAt": "2025-08-07T11:12:01.203Z",
    "dataQuality": {
      "hasPhone": true,
      "hasWebsite": true,
      "hasRating": true,
      "hasDistrict": true,
      "hasLocation": true
    }
  },
  {
    "id": "hoi-an-lotus-zen-spa",
    "name": "Lotus Zen Spa",
    "address": "42 Tống Văn Sương, Cẩm Thanh, Hội An, Quảng Nam 640000, Vietnam",
    "city": "Hoi An",
    "phone": "+84 989 228 870",
    "website": null,
    "rating": 5,
    "reviewCount": 546,
    "priceLevel": null,
    "category": "Spa",
    "description": null,
    "imageUrl": "https://lh3.googleusercontent.com/p/AF1QipPidkQSc8cluqgJwvmSSEm5_8yj14_ptRE-_zaj=w408-h306-k-no",
    "location": {
      "lat": 15.8820081,
      "lng": 108.3539419
    },
    "hours": [
      {
        "day": "Monday",
        "hours": "10 AM to 10 PM"
      },
      {
        "day": "Tuesday",
        "hours": "10 AM to 10 PM"
      },
      {
        "day": "Wednesday",
        "hours": "10 AM to 10 PM"
      },
      {
        "day": "Thursday",
        "hours": "10 AM to 10 PM"
      },
      {
        "day": "Friday",
        "hours": "10 AM to 10 PM"
      },
      {
        "day": "Saturday",
        "hours": "10 AM to 10 PM"
      },
      {
        "day": "Sunday",
        "hours": "10 AM to 10 PM"
      }
    ],
    "scrapedAt": "2025-08-07T10:44:01.405Z",
    "source": "apify-google-maps",
    "district": "Cẩm Thanh",
    "districtOrWard": "Cẩm Thanh",
    "combinedScore": 5,
    "processedAt": "2025-08-07T11:12:01.203Z",
    "dataQuality": {
      "hasPhone": true,
      "hasWebsite": false,
      "hasRating": true,
      "hasDistrict": true,
      "hasLocation": true
    }
  },
  {
    "id": "hoi-an-golden-rose-spa-hoa-hng-vng",
    "name": "Golden Rose Spa - Hoa Hồng Vàng",
    "address": "07 Phan Đình Phùng, Cẩm Sơn, Hội An, Quảng Nam 51314, Vietnam",
    "city": "Hoi An",
    "phone": "+84 935 664 022",
    "website": "https://goldenrosespahoian.com/",
    "rating": 4.9,
    "reviewCount": 2882,
    "priceLevel": null,
    "category": "Spa",
    "description": null,
    "imageUrl": "https://lh3.googleusercontent.com/p/AF1QipMh3IKUjnpwEG_fsOE2wK_aIoQlTCWodWWjdpZb=w408-h270-k-no",
    "location": {
      "lat": 15.8894678,
      "lng": 108.3306361
    },
    "hours": [
      {
        "day": "Monday",
        "hours": "9 AM to 10 PM"
      },
      {
        "day": "Tuesday",
        "hours": "9 AM to 10 PM"
      },
      {
        "day": "Wednesday",
        "hours": "9 AM to 10 PM"
      },
      {
        "day": "Thursday",
        "hours": "9 AM to 10 PM"
      },
      {
        "day": "Friday",
        "hours": "9 AM to 10 PM"
      },
      {
        "day": "Saturday",
        "hours": "9 AM to 10 PM"
      },
      {
        "day": "Sunday",
        "hours": "9 AM to 10 PM"
      }
    ],
    "scrapedAt": "2025-08-07T10:44:01.405Z",
    "source": "apify-google-maps",
    "district": "Unknown",
    "districtOrWard": "Unknown",
    "combinedScore": 4.93,
    "processedAt": "2025-08-07T11:12:01.203Z",
    "dataQuality": {
      "hasPhone": true,
      "hasWebsite": true,
      "hasRating": true,
      "hasDistrict": true,
      "hasLocation": true
    }
  },
  {
    "id": "hoi-an-spa-an-bng-beach-mimi-spa",
    "name": "Spa An bàng beach Mimi spa 안방비치 미미스파.",
    "address": "161 Nguyễn Phan Vinh, Cẩm An, Hội An, Quảng Nam, Vietnam",
    "city": "Hoi An",
    "phone": "+84 905 118 077",
    "website": "http://sites.google.com/view/mimispa-anbangbeach/",
    "rating": 4.9,
    "reviewCount": 291,
    "priceLevel": null,
    "category": "Spa",
    "description": null,
    "imageUrl": "https://lh3.googleusercontent.com/p/AF1QipOAnX2MpvJHZAWOvIEAAizuZ1rh-T1hHYyJOY90=w408-h272-k-no",
    "location": {
      "lat": 15.9136181,
      "lng": 108.336952
    },
    "hours": [
      {
        "day": "Monday",
        "hours": "9 AM to 11:30 PM"
      },
      {
        "day": "Tuesday",
        "hours": "9 AM to 11:30 PM"
      },
      {
        "day": "Wednesday",
        "hours": "9 AM to 11:30 PM"
      },
      {
        "day": "Thursday",
        "hours": "9 AM to 11:30 PM"
      },
      {
        "day": "Friday",
        "hours": "9 AM to 11:30 PM"
      },
      {
        "day": "Saturday",
        "hours": "9 AM to 11:30 PM"
      },
      {
        "day": "Sunday",
        "hours": "9 AM to 11:30 PM"
      }
    ],
    "scrapedAt": "2025-08-07T10:44:01.405Z",
    "source": "apify-google-maps",
    "district": "Cẩm An",
    "districtOrWard": "Cẩm An",
    "combinedScore": 4.93,
    "processedAt": "2025-08-07T11:12:01.203Z",
    "dataQuality": {
      "hasPhone": true,
      "hasWebsite": true,
      "hasRating": true,
      "hasDistrict": true,
      "hasLocation": true
    }
  },
  {
    "id": "hoi-an-ananda-spa",
    "name": "Ananda Spa",
    "address": "Bãi Ông, Hội An, Quảng Nam, Vietnam",
    "city": "Hoi An",
    "phone": null,
    "website": null,
    "rating": 5,
    "reviewCount": 73,
    "priceLevel": null,
    "category": "Spa",
    "description": null,
    "imageUrl": "https://lh3.googleusercontent.com/gps-cs-s/AC9h4nqUlNJZAdrn8UGSLvVsY_ju_RlnlKg7WEQtMd1kIQ2BqsvjVpFNlLCqODEFCl76twD1Ww4oPjdaOe6_AY4q7VPwDl8vl_KA2IIglNHucjU8VXNZZ-rh7El-YI4UlaunHWvDUyi_aJwi4no=w408-h305-k-no",
    "location": {
      "lat": 15.960992,
      "lng": 108.504871
    },
    "hours": [],
    "scrapedAt": "2025-08-07T10:44:01.405Z",
    "source": "apify-google-maps",
    "district": "Unknown",
    "districtOrWard": "Unknown",
    "combinedScore": 4.595,
    "processedAt": "2025-08-07T11:12:01.203Z",
    "dataQuality": {
      "hasPhone": false,
      "hasWebsite": false,
      "hasRating": true,
      "hasDistrict": true,
      "hasLocation": true
    }
  },
  {
    "id": "hoi-an-relaxanh-wellness-spa-hoi-an",
    "name": "Relaxanh Wellness Spa Hoi An",
    "address": "5/3 Trần Phú, Old Town, Hội An, Quảng Nam, Vietnam",
    "city": "Hoi An",
    "phone": "+84 949 290 594",
    "website": "https://relaxanhspa.com/",
    "rating": 4.9,
    "reviewCount": 1908,
    "priceLevel": null,
    "category": "Massage spa",
    "description": null,
    "imageUrl": "https://lh3.googleusercontent.com/p/AF1QipPxyLSuAG7xIvkZUvSqh36UknYcjUZIeezlFSmT=w408-h303-k-no",
    "location": {
      "lat": 15.877296,
      "lng": 108.3320397
    },
    "hours": [
      {
        "day": "Monday",
        "hours": "9 AM to 11:30 PM"
      },
      {
        "day": "Tuesday",
        "hours": "9 AM to 11:30 PM"
      },
      {
        "day": "Wednesday",
        "hours": "9 AM to 11:30 PM"
      },
      {
        "day": "Thursday",
        "hours": "9 AM to 11:30 PM"
      },
      {
        "day": "Friday",
        "hours": "9 AM to 11:30 PM"
      },
      {
        "day": "Saturday",
        "hours": "9 AM to 11:30 PM"
      },
      {
        "day": "Sunday",
        "hours": "9 AM to 11:30 PM"
      }
    ],
    "scrapedAt": "2025-08-07T10:44:01.405Z",
    "source": "apify-google-maps",
    "district": "Unknown",
    "districtOrWard": "Unknown",
    "combinedScore": 4.93,
    "processedAt": "2025-08-07T11:12:01.203Z",
    "dataQuality": {
      "hasPhone": true,
      "hasWebsite": true,
      "hasRating": true,
      "hasDistrict": true,
      "hasLocation": true
    }
  },
  {
    "id": "hoi-an-myno-spa-hoi-an-spa-hoi-an-massage-hoi-an",
    "name": "Myno spa Hoi An - Spa Hoi An - Massage Hoi An- 미노스파- 스파 호이안 - 호이안 마사지 -按摩 会安- ホイアンのマッサージ",
    "address": "115 Ngô Quyền, Phường Minh An, Hội An, Quảng Nam, Vietnam",
    "city": "Hoi An",
    "phone": "+84 905 517 867",
    "website": "https://hoianmynospa.com/",
    "rating": 4.8,
    "reviewCount": 1389,
    "priceLevel": null,
    "category": "Massage spa",
    "description": null,
    "imageUrl": "https://lh3.googleusercontent.com/gps-cs-s/AC9h4nrrXTakQ4Orv2-28sTirnm8ueolEXGU-cfkKOZEgtF4h7gXOOaiQRaqr9DHKTwfbasZMHjS6wUVDLd87gnhHW1kGjbbxhkGLHcUI5Rt87QggVym9E2pT5Mu4B5ry57Nh3__1mgFIg=w408-h306-k-no",
    "location": {
      "lat": 15.8745468,
      "lng": 108.3242639
    },
    "hours": [
      {
        "day": "Monday",
        "hours": "9 AM to 10:30 PM"
      },
      {
        "day": "Tuesday",
        "hours": "9 AM to 10:30 PM"
      },
      {
        "day": "Wednesday",
        "hours": "9 AM to 10:30 PM"
      },
      {
        "day": "Thursday",
        "hours": "9 AM to 10:30 PM"
      },
      {
        "day": "Friday",
        "hours": "9 AM to 10:30 PM"
      },
      {
        "day": "Saturday",
        "hours": "9 AM to 10:30 PM"
      },
      {
        "day": "Sunday",
        "hours": "9 AM to 10:30 PM"
      }
    ],
    "scrapedAt": "2025-08-07T10:44:01.405Z",
    "source": "apify-google-maps",
    "district": "Minh An",
    "districtOrWard": "Minh An",
    "combinedScore": 4.859999999999999,
    "processedAt": "2025-08-07T11:12:01.203Z",
    "dataQuality": {
      "hasPhone": true,
      "hasWebsite": true,
      "hasRating": true,
      "hasDistrict": true,
      "hasLocation": true
    }
  },
  {
    "id": "hoi-an-be-be-spa-best-spa-in-hoi-an-best-massage-in-hoi-an",
    "name": "Be Be Spa- Best Spa in Hoi An - Best Massage in Hoi An - 호 이안 최고의 스파 - 호이안 스파 - 호이 안 마사지",
    "address": "81 Lạc Long Quân, Cẩm An, Hội An, Quảng Nam, Vietnam",
    "city": "Hoi An",
    "phone": "+84 937 180 721",
    "website": null,
    "rating": 4.9,
    "reviewCount": 49,
    "priceLevel": null,
    "category": "Spa",
    "description": null,
    "imageUrl": "https://lh3.googleusercontent.com/gps-cs-s/AC9h4noKT0xTSozd_OPlLWilAG52Hp6gTB9XHNlezv8oZH5LrjlX04_TG2uphLBYpgArAdiqUZD7aPsmZIUUl0dLnQOWaYmPJu-Igy0ymb3mNqEjORKWQwdKkkRQZhCqYKPfmtooB0w0=w426-h240-k-no",
    "location": {
      "lat": 15.89984,
      "lng": 108.3577907
    },
    "hours": [
      {
        "day": "Monday",
        "hours": "8 AM to 11 PM"
      },
      {
        "day": "Tuesday",
        "hours": "8 AM to 11 PM"
      },
      {
        "day": "Wednesday",
        "hours": "8 AM to 11 PM"
      },
      {
        "day": "Thursday",
        "hours": "8 AM to 11 PM"
      },
      {
        "day": "Friday",
        "hours": "8 AM to 11 PM"
      },
      {
        "day": "Saturday",
        "hours": "8 AM to 11 PM"
      },
      {
        "day": "Sunday",
        "hours": "8 AM to 11 PM"
      }
    ],
    "scrapedAt": "2025-08-07T10:44:01.405Z",
    "source": "apify-google-maps",
    "district": "Cẩm An",
    "districtOrWard": "Cẩm An",
    "combinedScore": 4.165,
    "processedAt": "2025-08-07T11:12:01.203Z",
    "dataQuality": {
      "hasPhone": true,
      "hasWebsite": false,
      "hasRating": true,
      "hasDistrict": true,
      "hasLocation": true
    }
  },
  {
    "id": "hoi-an-ginger-flower-massage-spa-gel-nail-shampoo-best-massage-in-hoi-an-free-pick-up",
    "name": "Ginger Flower Massage SPA + Gel Nail + Shampoo (洗头). Best massage in Hoi An - 会安最好的按摩 (Free pick up - 免费取货)",
    "address": "Âu Cơ, Cửa Đại, Hội An, Quảng Nam, Vietnam",
    "city": "Hoi An",
    "phone": "+84 905 942 781",
    "website": "https://www.facebook.com/profile.php?id=61562897613104&mibextid=LQQJ4d",
    "rating": 5,
    "reviewCount": 1620,
    "priceLevel": null,
    "category": "Spa",
    "description": null,
    "imageUrl": "https://lh3.googleusercontent.com/gps-cs-s/AC9h4nolWl-zrnVShvNrW5SNa1TQKMEp2ekoFqVuiota0KPWsfj9BtjRO2f26WpL-EJcgDEGmtnmcekK2cMy8n9VQBmgPb39pG3ZQ72rHiOOQHjK86WDBRrjfbPUD1KdYJkdabAaXcL-RNuW9bid=w408-h544-k-no",
    "location": {
      "lat": 15.889396,
      "lng": 108.3776198
    },
    "hours": [
      {
        "day": "Monday",
        "hours": "7 AM to 12 AM"
      },
      {
        "day": "Tuesday",
        "hours": "7 AM to 12 AM"
      },
      {
        "day": "Wednesday",
        "hours": "7 AM to 12 AM"
      },
      {
        "day": "Thursday",
        "hours": "7 AM to 12 AM"
      },
      {
        "day": "Friday",
        "hours": "7 AM to 12 AM"
      },
      {
        "day": "Saturday",
        "hours": "7 AM to 12 AM"
      },
      {
        "day": "Sunday",
        "hours": "7 AM to 12 AM"
      }
    ],
    "scrapedAt": "2025-08-07T10:44:01.405Z",
    "source": "apify-google-maps",
    "district": "Unknown",
    "districtOrWard": "Unknown",
    "combinedScore": 5,
    "processedAt": "2025-08-07T11:12:01.204Z",
    "dataQuality": {
      "hasPhone": true,
      "hasWebsite": true,
      "hasRating": true,
      "hasDistrict": true,
      "hasLocation": true
    }
  },
  {
    "id": "hoi-an-kai-spa-cafe-massage_nail_eyelash_tatoo-an-bang-hoi-an",
    "name": "Kai Spa & Cafe (massage_nail_eyelash_tatoo- an bang hoi an)",
    "address": "at ally, An Bang beach, Hẻm168, Nguyễn Phan Vinh/164 nguyen phan vinh str, Cẩm An, Hội An, Quảng Nam, Vietnam",
    "city": "Hoi An",
    "phone": "+84 978 629 864",
    "website": "https://www.facebook.com/wherebodymetyoursoul/",
    "rating": 5,
    "reviewCount": 548,
    "priceLevel": null,
    "category": "Massage therapist",
    "description": null,
    "imageUrl": "https://lh3.googleusercontent.com/p/AF1QipOsqrdCb-rTaQQxuAOBN83P_AsRkS9qEq-ifzIU=w426-h240-k-no",
    "location": {
      "lat": 15.915071,
      "lng": 108.336538
    },
    "hours": [
      {
        "day": "Monday",
        "hours": "8 AM to 9 PM"
      },
      {
        "day": "Tuesday",
        "hours": "8 AM to 9 PM"
      },
      {
        "day": "Wednesday",
        "hours": "8 AM to 9 PM"
      },
      {
        "day": "Thursday",
        "hours": "8 AM to 9 PM"
      },
      {
        "day": "Friday",
        "hours": "8 AM to 9 PM"
      },
      {
        "day": "Saturday",
        "hours": "8 AM to 9 PM"
      },
      {
        "day": "Sunday",
        "hours": "8 AM to 9 PM"
      }
    ],
    "scrapedAt": "2025-08-07T10:44:01.405Z",
    "source": "apify-google-maps",
    "district": "Cẩm An",
    "districtOrWard": "Cẩm An",
    "combinedScore": 5,
    "processedAt": "2025-08-07T11:12:01.204Z",
    "dataQuality": {
      "hasPhone": true,
      "hasWebsite": true,
      "hasRating": true,
      "hasDistrict": true,
      "hasLocation": true
    }
  },
  {
    "id": "hoi-an-suchu-spa-hoi-an-foot-and-body-massage-hot-tone-id-spasuchu02",
    "name": "SuChu SPA HOI AN FOOT AND BODY MASSAGE HOT TONE (코리아마사지스파 - 예약 카톡ID: spasuchu02",
    "address": "02 La Hối, Phường Minh An, Hội An, Quảng Nam 560000, Vietnam",
    "city": "Hoi An",
    "phone": "+84 913 979 292",
    "website": null,
    "rating": 4.3,
    "reviewCount": 49,
    "priceLevel": null,
    "category": "Hot bedstone spa",
    "description": null,
    "imageUrl": "https://lh3.googleusercontent.com/p/AF1QipPwhleS78vYuicaSmBlh8olbhi9NKaE0Ujau56i=w426-h240-k-no",
    "location": {
      "lat": 15.8757868,
      "lng": 108.3257386
    },
    "hours": [
      {
        "day": "Monday",
        "hours": "10 AM to 11 PM"
      },
      {
        "day": "Tuesday",
        "hours": "10 AM to 11 PM"
      },
      {
        "day": "Wednesday",
        "hours": "10 AM to 11 PM"
      },
      {
        "day": "Thursday",
        "hours": "10 AM to 11 PM"
      },
      {
        "day": "Friday",
        "hours": "10 AM to 11 PM"
      },
      {
        "day": "Saturday",
        "hours": "10 AM to 11 PM"
      },
      {
        "day": "Sunday",
        "hours": "10 AM to 11 PM"
      }
    ],
    "scrapedAt": "2025-08-07T10:44:01.405Z",
    "source": "apify-google-maps",
    "district": "Minh An",
    "districtOrWard": "Minh An",
    "combinedScore": 3.745,
    "processedAt": "2025-08-07T11:12:01.204Z",
    "dataQuality": {
      "hasPhone": true,
      "hasWebsite": false,
      "hasRating": true,
      "hasDistrict": true,
      "hasLocation": true
    }
  },
  {
    "id": "hoi-an-massage-thanh-lieu",
    "name": "Massage Thanh Lieu",
    "address": "V9H7+Q3C, Cẩm Thanh, Hội An, Quảng Nam 51300, Vietnam",
    "city": "Hoi An",
    "phone": "+84 935 074 063",
    "website": null,
    "rating": null,
    "reviewCount": 0,
    "priceLevel": null,
    "category": "Massage spa",
    "description": null,
    "imageUrl": "https://streetviewpixels-pa.googleapis.com/v1/thumbnail?panoid=wrJjwXjVtkp1LpYheQ48uQ&cb_client=search.gws-prod.gps&w=408&h=240&yaw=276.22318&pitch=0&thumbfov=100",
    "location": {
      "lat": 15.8794453,
      "lng": 108.3626478
    },
    "hours": [],
    "scrapedAt": "2025-08-07T10:44:01.405Z",
    "source": "apify-google-maps",
    "district": "Cẩm Thanh",
    "districtOrWard": "Cẩm Thanh",
    "combinedScore": 0,
    "processedAt": "2025-08-07T11:12:01.204Z",
    "dataQuality": {
      "hasPhone": true,
      "hasWebsite": false,
      "hasRating": false,
      "hasDistrict": true,
      "hasLocation": true
    }
  },
  {
    "id": "hoi-an-linh-spa",
    "name": "Linh Spa",
    "address": "235 Cửa Đại, Khối Phước Tân, Phường, Hội An, Quảng Nam 560000, Vietnam",
    "city": "Hoi An",
    "phone": "+84 905 517 750",
    "website": "http://linhlavenderspa.com/body-massage/",
    "rating": 4.9,
    "reviewCount": 411,
    "priceLevel": null,
    "category": "Massage spa",
    "description": null,
    "imageUrl": "https://lh3.googleusercontent.com/p/AF1QipP4j_yAG-dUi-8rDTVr9YuUxlj4BI0tMFiLty92=w408-h543-k-no",
    "location": {
      "lat": 15.8853043,
      "lng": 108.3500179
    },
    "hours": [
      {
        "day": "Monday",
        "hours": "9:30 AM to 10 PM"
      },
      {
        "day": "Tuesday",
        "hours": "9:30 AM to 10 PM"
      },
      {
        "day": "Wednesday",
        "hours": "9:30 AM to 10 PM"
      },
      {
        "day": "Thursday",
        "hours": "9:30 AM to 10 PM"
      },
      {
        "day": "Friday",
        "hours": "9:30 AM to 10 PM"
      },
      {
        "day": "Saturday",
        "hours": "9:30 AM to 10 PM"
      },
      {
        "day": "Sunday",
        "hours": "9:30 AM to 10 PM"
      }
    ],
    "scrapedAt": "2025-08-07T10:44:01.405Z",
    "source": "apify-google-maps",
    "district": "Unknown",
    "districtOrWard": "Unknown",
    "combinedScore": 4.93,
    "processedAt": "2025-08-07T11:12:01.204Z",
    "dataQuality": {
      "hasPhone": true,
      "hasWebsite": true,
      "hasRating": true,
      "hasDistrict": true,
      "hasLocation": true
    }
  },
  {
    "id": "hoi-an-the-garden-1975-spa-hoi-an-1975",
    "name": "The Garden 1975 Spa Hoi An - 1975 스파 호이안",
    "address": "Kiệt 86 Trần Hưng Đạo, Phường Minh An, Hội An, Quảng Nam 560000, Vietnam",
    "city": "Hoi An",
    "phone": "+84 379 701 975",
    "website": null,
    "rating": 4.8,
    "reviewCount": 712,
    "priceLevel": null,
    "category": "Spa",
    "description": null,
    "imageUrl": "https://lh3.googleusercontent.com/gps-cs-s/AC9h4npSic5DxddqIM9hvGUi1yeJJtbki07IKY2APJHFpi14OGYRjVTke3cXbayscGOl07XJn9Mo3Ttkvw9xjTQz9W0B9PQ3aTxgfG70H3r0by-mdt8o35zUyJIwKc4mJ0P_Waoll3Y=w408-h408-k-no",
    "location": {
      "lat": 15.8811327,
      "lng": 108.324134
    },
    "hours": [
      {
        "day": "Monday",
        "hours": "10 AM to 10 PM"
      },
      {
        "day": "Tuesday",
        "hours": "10 AM to 10 PM"
      },
      {
        "day": "Wednesday",
        "hours": "10 AM to 10 PM"
      },
      {
        "day": "Thursday",
        "hours": "10 AM to 10 PM"
      },
      {
        "day": "Friday",
        "hours": "10 AM to 10 PM"
      },
      {
        "day": "Saturday",
        "hours": "10 AM to 10 PM"
      },
      {
        "day": "Sunday",
        "hours": "10 AM to 10 PM"
      }
    ],
    "scrapedAt": "2025-08-07T10:44:01.405Z",
    "source": "apify-google-maps",
    "district": "Minh An",
    "districtOrWard": "Minh An",
    "combinedScore": 4.859999999999999,
    "processedAt": "2025-08-07T11:12:01.204Z",
    "dataQuality": {
      "hasPhone": true,
      "hasWebsite": false,
      "hasRating": true,
      "hasDistrict": true,
      "hasLocation": true
    }
  },
  {
    "id": "hoi-an-diamond-spa-nails-hoi-an-best-spa-hoi-an",
    "name": "Diamond Spa & Nails Hoi An - Best spa Hoi An- 호이안 마사지 - 호이안 스파",
    "address": "7 Đường Cao Hồng Lãnh, Phường Minh An, Hội An, Quảng Nam, Vietnam",
    "city": "Hoi An",
    "phone": "+84 907 554 225",
    "website": "https://www.diamondhoianspa.com/",
    "rating": 4.8,
    "reviewCount": 598,
    "priceLevel": null,
    "category": "Massage spa",
    "description": null,
    "imageUrl": "https://lh3.googleusercontent.com/p/AF1QipM6Ta6hChicvAWH5LkemWzQyhG0apwur9-5k6NT=w408-h306-k-no",
    "location": {
      "lat": 15.8753652,
      "lng": 108.323583
    },
    "hours": [
      {
        "day": "Monday",
        "hours": "9 AM to 10 PM"
      },
      {
        "day": "Tuesday",
        "hours": "9 AM to 10 PM"
      },
      {
        "day": "Wednesday",
        "hours": "9 AM to 10 PM"
      },
      {
        "day": "Thursday",
        "hours": "9 AM to 10 PM"
      },
      {
        "day": "Friday",
        "hours": "9 AM to 10 PM"
      },
      {
        "day": "Saturday",
        "hours": "9 AM to 10 PM"
      },
      {
        "day": "Sunday",
        "hours": "9 AM to 10 PM"
      }
    ],
    "scrapedAt": "2025-08-07T10:44:01.405Z",
    "source": "apify-google-maps",
    "district": "Minh An",
    "districtOrWard": "Minh An",
    "combinedScore": 4.859999999999999,
    "processedAt": "2025-08-07T11:12:01.204Z",
    "dataQuality": {
      "hasPhone": true,
      "hasWebsite": true,
      "hasRating": true,
      "hasDistrict": true,
      "hasLocation": true
    }
  },
  {
    "id": "hoi-an-nn-spa-hi-an",
    "name": "Nón Spa Hội An",
    "address": "17 Lê Lợi, Phường Minh An, Hội An, Quảng Nam, Vietnam",
    "city": "Hoi An",
    "phone": "+84 703 793 930",
    "website": null,
    "rating": 4.9,
    "reviewCount": 2064,
    "priceLevel": null,
    "category": "Spa",
    "description": null,
    "imageUrl": "https://lh3.googleusercontent.com/gps-cs-s/AC9h4nqRjWTChulYLzNcymt5aUhRbrC1211iFfJ1nJwmorOJQOIG6PSGiDOn72kvP44A_0C8TnHILhRyZ2K1ztmH3BV6Yn8MVYGiujEYd5iYpZk2mSfdeawZeCA30lVCgS9tle1ZOOjw=w408-h408-k-no",
    "location": {
      "lat": 15.8788508,
      "lng": 108.3286838
    },
    "hours": [
      {
        "day": "Monday",
        "hours": "8:30 AM to 10:30 PM"
      },
      {
        "day": "Tuesday",
        "hours": "8:30 AM to 10:30 PM"
      },
      {
        "day": "Wednesday",
        "hours": "8:30 AM to 10:30 PM"
      },
      {
        "day": "Thursday",
        "hours": "8:30 AM to 10:30 PM"
      },
      {
        "day": "Friday",
        "hours": "8:30 AM to 10:30 PM"
      },
      {
        "day": "Saturday",
        "hours": "8:30 AM to 10:30 PM"
      },
      {
        "day": "Sunday",
        "hours": "8:30 AM to 10:30 PM"
      }
    ],
    "scrapedAt": "2025-08-07T10:44:01.405Z",
    "source": "apify-google-maps",
    "district": "Minh An",
    "districtOrWard": "Minh An",
    "combinedScore": 4.93,
    "processedAt": "2025-08-07T11:12:01.204Z",
    "dataQuality": {
      "hasPhone": true,
      "hasWebsite": false,
      "hasRating": true,
      "hasDistrict": true,
      "hasLocation": true
    }
  },
  {
    "id": "hoi-an-pandanus-spa-hoi-an",
    "name": "Pandanus Spa Hoi An",
    "address": "21 Phan Đình Phùng, Cẩm Sơn, Hội An, Quảng Nam 560000, Vietnam",
    "city": "Hoi An",
    "phone": "+84 935 552 733",
    "website": "https://sites.google.com/view/pandanus-spahoian",
    "rating": 4.8,
    "reviewCount": 860,
    "priceLevel": null,
    "category": "Spa",
    "description": null,
    "imageUrl": "https://lh3.googleusercontent.com/gps-cs-s/AC9h4npEkq6-OoA3dgq6SqaGDE-rN9h8u0lNSlm3QkhxTtywIzEtBpoZ6I6AAlK5ltq2HJPsYf-QpgjZkF3QD3Kjzeu735yRBeIBIUeL23Qs_qMpYys6ZxEeMIJDCG8WOE5XINWauVg=w408-h306-k-no",
    "location": {
      "lat": 15.888652,
      "lng": 108.330087
    },
    "hours": [
      {
        "day": "Monday",
        "hours": "10 AM to 9:30 PM"
      },
      {
        "day": "Tuesday",
        "hours": "10 AM to 9:30 PM"
      },
      {
        "day": "Wednesday",
        "hours": "10 AM to 9:30 PM"
      },
      {
        "day": "Thursday",
        "hours": "10 AM to 9:30 PM"
      },
      {
        "day": "Friday",
        "hours": "10 AM to 9:30 PM"
      },
      {
        "day": "Saturday",
        "hours": "10 AM to 9:30 PM"
      },
      {
        "day": "Sunday",
        "hours": "10 AM to 9:30 PM"
      }
    ],
    "scrapedAt": "2025-08-07T10:44:01.405Z",
    "source": "apify-google-maps",
    "district": "Unknown",
    "districtOrWard": "Unknown",
    "combinedScore": 4.859999999999999,
    "processedAt": "2025-08-07T11:12:01.204Z",
    "dataQuality": {
      "hasPhone": true,
      "hasWebsite": true,
      "hasRating": true,
      "hasDistrict": true,
      "hasLocation": true
    }
  },
  {
    "id": "hoi-an-massage-heartlandanbangspa",
    "name": "Massage Heartlandanbangspa",
    "address": "152 Nguyễn Phan Vinh, Cẩm An, Hội An, Quảng Nam 560000, Vietnam",
    "city": "Hoi An",
    "phone": "+84 906 504 004",
    "website": "http://heartlandanbangspa.com/",
    "rating": 4.9,
    "reviewCount": 198,
    "priceLevel": null,
    "category": "Massage spa",
    "description": null,
    "imageUrl": "https://lh3.googleusercontent.com/p/AF1QipMHbXm1vTOyFq597jLJfUH1YpYhhtgyBnTKPP5i=w408-h271-k-no",
    "location": {
      "lat": 15.9136954,
      "lng": 108.3370333
    },
    "hours": [
      {
        "day": "Monday",
        "hours": "9:30 AM to 10 PM"
      },
      {
        "day": "Tuesday",
        "hours": "9:30 AM to 10 PM"
      },
      {
        "day": "Wednesday",
        "hours": "9:30 AM to 10 PM"
      },
      {
        "day": "Thursday",
        "hours": "9:30 AM to 10 PM"
      },
      {
        "day": "Friday",
        "hours": "9:30 AM to 10 PM"
      },
      {
        "day": "Saturday",
        "hours": "9:30 AM to 10 PM"
      },
      {
        "day": "Sunday",
        "hours": "9:30 AM to 10 PM"
      }
    ],
    "scrapedAt": "2025-08-07T10:44:01.405Z",
    "source": "apify-google-maps",
    "district": "Cẩm An",
    "districtOrWard": "Cẩm An",
    "combinedScore": 4.93,
    "processedAt": "2025-08-07T11:12:01.204Z",
    "dataQuality": {
      "hasPhone": true,
      "hasWebsite": true,
      "hasRating": true,
      "hasDistrict": true,
      "hasLocation": true
    }
  },
  {
    "id": "hoi-an-hoa-ly-spa-best-massage-in-hoi-an-free-pick-up-kakaotalk-id-hoalyspa",
    "name": "Hoa Ly Spa - Best massage in Hoi An - Free pick up - Kakaotalk ID: hoalyspa",
    "address": "Âu Cơ, Cửa Đại, Hội An, Quảng Nam, Vietnam",
    "city": "Hoi An",
    "phone": "+84 934 824 885",
    "website": null,
    "rating": 4.9,
    "reviewCount": 243,
    "priceLevel": null,
    "category": "Spa",
    "description": null,
    "imageUrl": "https://lh3.googleusercontent.com/p/AF1QipMuhgWQy0YA9OCtporMPcPMAqCzrZpyrkLQO4VD=w408-h508-k-no",
    "location": {
      "lat": 15.8807727,
      "lng": 108.387884
    },
    "hours": [
      {
        "day": "Monday",
        "hours": "7:30 AM to 11 PM"
      },
      {
        "day": "Tuesday",
        "hours": "7:30 AM to 11 PM"
      },
      {
        "day": "Wednesday",
        "hours": "7:30 AM to 11 PM"
      },
      {
        "day": "Thursday",
        "hours": "7:30 AM to 11 PM"
      },
      {
        "day": "Friday",
        "hours": "7:30 AM to 11 PM"
      },
      {
        "day": "Saturday",
        "hours": "7:30 AM to 11 PM"
      },
      {
        "day": "Sunday",
        "hours": "7:30 AM to 11 PM"
      }
    ],
    "scrapedAt": "2025-08-07T10:44:01.405Z",
    "source": "apify-google-maps",
    "district": "Unknown",
    "districtOrWard": "Unknown",
    "combinedScore": 4.93,
    "processedAt": "2025-08-07T11:12:01.204Z",
    "dataQuality": {
      "hasPhone": true,
      "hasWebsite": false,
      "hasRating": true,
      "hasDistrict": true,
      "hasLocation": true
    }
  },
  {
    "id": "hoi-an-phng-tho-beauty-spa",
    "name": "Phương Thảo Beauty Spa",
    "address": "132 Nguyễn Duy Hiệu, Cẩm Châu, Hội An, Quảng Nam 51308, Vietnam",
    "city": "Hoi An",
    "phone": "+84 905 864 884",
    "website": "https://www.facebook.com/thokool.phan",
    "rating": 5,
    "reviewCount": 10,
    "priceLevel": null,
    "category": "Massage spa",
    "description": null,
    "imageUrl": "https://lh3.googleusercontent.com/p/AF1QipM_UOkYpmcddbbuFEeSIPpGtnV4zTKqhxb4vk0x=w408-h544-k-no",
    "location": {
      "lat": 15.881294,
      "lng": 108.347718
    },
    "hours": [
      {
        "day": "Monday",
        "hours": "8:30 AM to 8:30 PM"
      },
      {
        "day": "Tuesday",
        "hours": "8:30 AM to 8:30 PM"
      },
      {
        "day": "Wednesday",
        "hours": "8:30 AM to 8:30 PM"
      },
      {
        "day": "Thursday",
        "hours": "8:30 AM to 8:30 PM"
      },
      {
        "day": "Friday",
        "hours": "8:30 AM to 8:30 PM"
      },
      {
        "day": "Saturday",
        "hours": "8:30 AM to 8:30 PM"
      },
      {
        "day": "Sunday",
        "hours": "8:30 AM to 8:30 PM"
      }
    ],
    "scrapedAt": "2025-08-07T10:44:01.405Z",
    "source": "apify-google-maps",
    "district": "Cẩm Châu",
    "districtOrWard": "Cẩm Châu",
    "combinedScore": 3.65,
    "processedAt": "2025-08-07T11:12:01.204Z",
    "dataQuality": {
      "hasPhone": true,
      "hasWebsite": true,
      "hasRating": true,
      "hasDistrict": true,
      "hasLocation": true
    }
  },
  {
    "id": "hoi-an-ocean-spa-hoi-an",
    "name": "Ocean Spa Hoi An",
    "address": "An Bang beach, Cẩm An, Tp. Hội An, Quảng Nam, Vietnam",
    "city": "Hoi An",
    "phone": "+84 935 558 220",
    "website": "https://www.oceanspahoian.com/",
    "rating": 4.9,
    "reviewCount": 1143,
    "priceLevel": null,
    "category": "Spa",
    "description": null,
    "imageUrl": "https://lh3.googleusercontent.com/p/AF1QipNstvQDFKnqpGQdNWx5ZP9EWo4LLoySgG7TyfJe=w408-h272-k-no",
    "location": {
      "lat": 15.9127808,
      "lng": 108.3401939
    },
    "hours": [
      {
        "day": "Monday",
        "hours": "8 AM to 9 PM"
      },
      {
        "day": "Tuesday",
        "hours": "8 AM to 9 PM"
      },
      {
        "day": "Wednesday",
        "hours": "8 AM to 9 PM"
      },
      {
        "day": "Thursday",
        "hours": "8 AM to 9 PM"
      },
      {
        "day": "Friday",
        "hours": "8 AM to 9 PM"
      },
      {
        "day": "Saturday",
        "hours": "8 AM to 9 PM"
      },
      {
        "day": "Sunday",
        "hours": "8 AM to 9 PM"
      }
    ],
    "scrapedAt": "2025-08-07T10:44:01.405Z",
    "source": "apify-google-maps",
    "district": "Cẩm An",
    "districtOrWard": "Cẩm An",
    "combinedScore": 4.93,
    "processedAt": "2025-08-07T11:12:01.204Z",
    "dataQuality": {
      "hasPhone": true,
      "hasWebsite": true,
      "hasRating": true,
      "hasDistrict": true,
      "hasLocation": true
    }
  },
  {
    "id": "hoi-an-warm-bamboo-spa-best-spa-in-hoi-an",
    "name": "Warm Bamboo Spa - Best Spa in Hoi An - 스파 & 마사지 호이안",
    "address": "183 Cửa Đại, Cẩm Sơn, Hội An, Quảng Nam 53000, Vietnam",
    "city": "Hoi An",
    "phone": "+84 363 449 667",
    "website": "https://warmbamboospahoian.com/",
    "rating": 4.8,
    "reviewCount": 137,
    "priceLevel": null,
    "category": "Spa",
    "description": null,
    "imageUrl": "https://lh3.googleusercontent.com/p/AF1QipPnE4t7xbFwZVZtQnglopx9I7ad6_dlTEJjSWzS=w408-h544-k-no",
    "location": {
      "lat": 15.8878939,
      "lng": 108.3525267
    },
    "hours": [
      {
        "day": "Monday",
        "hours": "9 AM to 11 PM"
      },
      {
        "day": "Tuesday",
        "hours": "9 AM to 11 PM"
      },
      {
        "day": "Wednesday",
        "hours": "9 AM to 11 PM"
      },
      {
        "day": "Thursday",
        "hours": "9 AM to 11 PM"
      },
      {
        "day": "Friday",
        "hours": "9 AM to 11 PM"
      },
      {
        "day": "Saturday",
        "hours": "9 AM to 11 PM"
      },
      {
        "day": "Sunday",
        "hours": "9 AM to 11 PM"
      }
    ],
    "scrapedAt": "2025-08-07T10:44:01.405Z",
    "source": "apify-google-maps",
    "district": "Unknown",
    "districtOrWard": "Unknown",
    "combinedScore": 4.859999999999999,
    "processedAt": "2025-08-07T11:12:01.204Z",
    "dataQuality": {
      "hasPhone": true,
      "hasWebsite": true,
      "hasRating": true,
      "hasDistrict": true,
      "hasLocation": true
    }
  },
  {
    "id": "hoi-an-sunam-spa-massage-nails-hoi-an",
    "name": "SuNam Spa Massage & Nails Hoi An",
    "address": "Night Market Street, 15/2 Nguyễn Hoàng, Phường Minh An, Hội An, Quảng Nam 560000, Vietnam",
    "city": "Hoi An",
    "phone": "+84 905 891 835",
    "website": "https://sunamspanails.com/",
    "rating": 4.9,
    "reviewCount": 2367,
    "priceLevel": null,
    "category": "Nail salon",
    "description": null,
    "imageUrl": "https://lh3.googleusercontent.com/p/AF1QipM7HjXpETpg_Zqfs898fMgBCNAvdO1jW02opiG-=w408-h408-k-no",
    "location": {
      "lat": 15.874028,
      "lng": 108.326141
    },
    "hours": [
      {
        "day": "Monday",
        "hours": "9 AM to 9 PM"
      },
      {
        "day": "Tuesday",
        "hours": "9 AM to 9 PM"
      },
      {
        "day": "Wednesday",
        "hours": "9 AM to 9 PM"
      },
      {
        "day": "Thursday",
        "hours": "9 AM to 9 PM"
      },
      {
        "day": "Friday",
        "hours": "9 AM to 9 PM"
      },
      {
        "day": "Saturday",
        "hours": "9 AM to 9 PM"
      },
      {
        "day": "Sunday",
        "hours": "9 AM to 9 PM"
      }
    ],
    "scrapedAt": "2025-08-07T10:44:01.405Z",
    "source": "apify-google-maps",
    "district": "Minh An",
    "districtOrWard": "Minh An",
    "combinedScore": 4.93,
    "processedAt": "2025-08-07T11:12:01.204Z",
    "dataQuality": {
      "hasPhone": true,
      "hasWebsite": true,
      "hasRating": true,
      "hasDistrict": true,
      "hasLocation": true
    }
  },
  {
    "id": "hoi-an-massage-tr-liu-yhct-nh-tm",
    "name": "Massage trị liệu - YHCT Như Tâm",
    "address": "287 Tôn Đức Thắng, Tân An, Hội An, Quảng Nam 560000, Vietnam",
    "city": "Hoi An",
    "phone": "+84 975 566 556",
    "website": null,
    "rating": 5,
    "reviewCount": 17,
    "priceLevel": null,
    "category": "Massage therapist",
    "description": null,
    "imageUrl": "https://lh3.googleusercontent.com/gps-cs-s/AC9h4npBeJFK1P7rZ-fL2u6sylAk8xw_0XOvkugzM5ooD2rJIZjb5isrgKzDoFZ8p0_Uhqj-xlOtLREANavMwclzQZGaysAdETEPtj1sQYOwlBI-gg6ZiOw67p9fQo2jZP_652BXYmBUD36EhzPY=w408-h544-k-no",
    "location": {
      "lat": 15.8938436,
      "lng": 108.3175114
    },
    "hours": [
      {
        "day": "Monday",
        "hours": "8 AM to 11 PM"
      },
      {
        "day": "Tuesday",
        "hours": "8 AM to 11 PM"
      },
      {
        "day": "Wednesday",
        "hours": "8 AM to 11 PM"
      },
      {
        "day": "Thursday",
        "hours": "8 AM to 11 PM"
      },
      {
        "day": "Friday",
        "hours": "8 AM to 11 PM"
      },
      {
        "day": "Saturday",
        "hours": "8 AM to 11 PM"
      },
      {
        "day": "Sunday",
        "hours": "8 AM to 11 PM"
      }
    ],
    "scrapedAt": "2025-08-07T10:44:01.405Z",
    "source": "apify-google-maps",
    "district": "Tân An",
    "districtOrWard": "Tân An",
    "combinedScore": 3.755,
    "processedAt": "2025-08-07T11:12:01.204Z",
    "dataQuality": {
      "hasPhone": true,
      "hasWebsite": false,
      "hasRating": true,
      "hasDistrict": true,
      "hasLocation": true
    }
  },
  {
    "id": "hoi-an-son-hoi-an-spa",
    "name": "Son Hoi An Spa",
    "address": "94 Ngô Quyền, Phường Minh An, Hội An, Quảng Nam 51000, Vietnam",
    "city": "Hoi An",
    "phone": "+84 935 007 427",
    "website": "https://sonhoianspa.com/",
    "rating": 5,
    "reviewCount": 103,
    "priceLevel": null,
    "category": "Spa",
    "description": null,
    "imageUrl": "https://lh3.googleusercontent.com/p/AF1QipNpxmyMgwFW0Rt8-898TIqrE26PaHGIs0R7gIXd=w408-h272-k-no",
    "location": {
      "lat": 15.8745786,
      "lng": 108.325551
    },
    "hours": [
      {
        "day": "Monday",
        "hours": "8 AM to 10:30 PM"
      },
      {
        "day": "Tuesday",
        "hours": "8 AM to 10:30 PM"
      },
      {
        "day": "Wednesday",
        "hours": "8 AM to 10 PM"
      },
      {
        "day": "Thursday",
        "hours": "8 AM to 10:30 PM"
      },
      {
        "day": "Friday",
        "hours": "8 AM to 10:30 PM"
      },
      {
        "day": "Saturday",
        "hours": "8 AM to 10:30 PM"
      },
      {
        "day": "Sunday",
        "hours": "8 AM to 10:30 PM"
      }
    ],
    "scrapedAt": "2025-08-07T10:44:01.405Z",
    "source": "apify-google-maps",
    "district": "Minh An",
    "districtOrWard": "Minh An",
    "combinedScore": 5,
    "processedAt": "2025-08-07T11:12:01.204Z",
    "dataQuality": {
      "hasPhone": true,
      "hasWebsite": true,
      "hasRating": true,
      "hasDistrict": true,
      "hasLocation": true
    }
  },
  {
    "id": "hoi-an-hamee-spa",
    "name": "HaMee Spa",
    "address": "209 Trần Nhân Tông, Cẩm Châu, Hội An, Quảng Nam 560000, Vietnam",
    "city": "Hoi An",
    "phone": "+84 399 861 803",
    "website": "https://www.facebook.com/share/1CC7kvPFQ9/",
    "rating": 5,
    "reviewCount": 57,
    "priceLevel": null,
    "category": "Spa",
    "description": null,
    "imageUrl": "https://lh3.googleusercontent.com/p/AF1QipO4DWYUIiCKC2HVeMqNSRsX8cdxtL637yCBXqoV=w408-h725-k-no",
    "location": {
      "lat": 15.8759899,
      "lng": 108.3465048
    },
    "hours": [
      {
        "day": "Monday",
        "hours": "9 AM to 11 PM"
      },
      {
        "day": "Tuesday",
        "hours": "9 AM to 11 PM"
      },
      {
        "day": "Wednesday",
        "hours": "9 AM to 11 PM"
      },
      {
        "day": "Thursday",
        "hours": "9 AM to 11 PM"
      },
      {
        "day": "Friday",
        "hours": "9 AM to 11 PM"
      },
      {
        "day": "Saturday",
        "hours": "9 AM to 11 PM"
      },
      {
        "day": "Sunday",
        "hours": "9 AM to 11 PM"
      }
    ],
    "scrapedAt": "2025-08-07T10:44:01.405Z",
    "source": "apify-google-maps",
    "district": "Cẩm Châu",
    "districtOrWard": "Cẩm Châu",
    "combinedScore": 4.355,
    "processedAt": "2025-08-07T11:12:01.204Z",
    "dataQuality": {
      "hasPhone": true,
      "hasWebsite": true,
      "hasRating": true,
      "hasDistrict": true,
      "hasLocation": true
    }
  },
  {
    "id": "hoi-an-dahan-spa-hi-an",
    "name": "DAHAN SPA Hội An",
    "address": "130 Lạc Long Quân, Cẩm An, Hội An, Quảng Nam 564070, Vietnam",
    "city": "Hoi An",
    "phone": "+84 941 185 762",
    "website": "https://www.dahanspa.com/",
    "rating": 4.9,
    "reviewCount": 4106,
    "priceLevel": null,
    "category": "Spa",
    "description": null,
    "imageUrl": "https://lh3.googleusercontent.com/gps-cs-s/AC9h4nqDaT1ikpdgkMOogjq1Sl03iWbfLq219otk1AxmODV9jAX9pKa2uqzzeGZ0rNO2x7ASV64bSpcmMybrsS89-5Cxo4cbCP2T1sBW4Z4dEkyFbwxShiLOsUkP1-1nVVALknwoVG8=w426-h240-k-no",
    "location": {
      "lat": 15.9113967,
      "lng": 108.3382263
    },
    "hours": [
      {
        "day": "Monday",
        "hours": "10 AM to 10 PM"
      },
      {
        "day": "Tuesday",
        "hours": "10 AM to 10 PM"
      },
      {
        "day": "Wednesday",
        "hours": "10 AM to 10 PM"
      },
      {
        "day": "Thursday",
        "hours": "10 AM to 10 PM"
      },
      {
        "day": "Friday",
        "hours": "10 AM to 10 PM"
      },
      {
        "day": "Saturday",
        "hours": "10 AM to 10 PM"
      },
      {
        "day": "Sunday",
        "hours": "10 AM to 10 PM"
      }
    ],
    "scrapedAt": "2025-08-07T10:44:01.405Z",
    "source": "apify-google-maps",
    "district": "Cẩm An",
    "districtOrWard": "Cẩm An",
    "combinedScore": 4.93,
    "processedAt": "2025-08-07T11:12:01.204Z",
    "dataQuality": {
      "hasPhone": true,
      "hasWebsite": true,
      "hasRating": true,
      "hasDistrict": true,
      "hasLocation": true
    }
  },
  {
    "id": "hoi-an-centella-spa",
    "name": "Centella Spa",
    "address": "54 Mạc Đĩnh Chi, Cẩm Sơn, Hội An, Quảng Nam 560000, Vietnam",
    "city": "Hoi An",
    "phone": "+84 932 530 539",
    "website": "http://centellaspahoian.com/",
    "rating": 4.9,
    "reviewCount": 1128,
    "priceLevel": null,
    "category": "Spa",
    "description": null,
    "imageUrl": "https://lh3.googleusercontent.com/gps-cs-s/AC9h4nrBb0bHYsyn99U4DplC94BbrzxAwTx9e7QuqqpkCjADCaQguJQa6172MJ_SxCtqsEhPRTv03e5CuCZ2DFe-ghWvyOGClDhjcu1a3ZKueyexUEJGy4cIKcNx6SanmFyNoTSr9-ec=w408-h306-k-no",
    "location": {
      "lat": 15.8884779,
      "lng": 108.328856
    },
    "hours": [
      {
        "day": "Monday",
        "hours": "9 AM to 10 PM"
      },
      {
        "day": "Tuesday",
        "hours": "9 AM to 10 PM"
      },
      {
        "day": "Wednesday",
        "hours": "9 AM to 10 PM"
      },
      {
        "day": "Thursday",
        "hours": "9 AM to 10 PM"
      },
      {
        "day": "Friday",
        "hours": "9 AM to 10 PM"
      },
      {
        "day": "Saturday",
        "hours": "9 AM to 10 PM"
      },
      {
        "day": "Sunday",
        "hours": "9 AM to 10 PM"
      }
    ],
    "scrapedAt": "2025-08-07T10:44:01.405Z",
    "source": "apify-google-maps",
    "district": "Hội An",
    "districtOrWard": "Hội An",
    "combinedScore": 4.93,
    "processedAt": "2025-08-07T11:12:01.204Z",
    "dataQuality": {
      "hasPhone": true,
      "hasWebsite": true,
      "hasRating": true,
      "hasDistrict": true,
      "hasLocation": true
    }
  },
  {
    "id": "hoi-an-leo-spa-an-bang-beach-hoi-an-250k-hot-deal",
    "name": "LeO Spa An Bang Beach, Hoi An - 250k hot deal - 호이안 스파 - 호이안 마사지 - 호이안 마사지 픽업 - 한국어로 예약",
    "address": "131 Nguyễn Phan Vinh, Cẩm An, Hội An, Quảng Nam, Vietnam",
    "city": "Hoi An",
    "phone": "+84 764 864 053",
    "website": null,
    "rating": 5,
    "reviewCount": 451,
    "priceLevel": null,
    "category": "Spa",
    "description": null,
    "imageUrl": "https://lh3.googleusercontent.com/gps-cs-s/AC9h4np1dX0uo747DcRzMOJ9XUk66bLB7M_9qWjCtVmi443QE6jf6OgWTucAJ41eCG6L2CyM81yCW2wwA0us_xHDgk_McLeKGaN8d52hRN5BW8hULe4kuFQkA9sTyca9sCXAjZG-58wf-A=w408-h544-k-no",
    "location": {
      "lat": 15.9128891,
      "lng": 108.3384761
    },
    "hours": [
      {
        "day": "Monday",
        "hours": "9 AM to 9 PM"
      },
      {
        "day": "Tuesday",
        "hours": "9 AM to 9 PM"
      },
      {
        "day": "Wednesday",
        "hours": "9 AM to 9 PM"
      },
      {
        "day": "Thursday",
        "hours": "9 AM to 9 PM"
      },
      {
        "day": "Friday",
        "hours": "9 AM to 9 PM"
      },
      {
        "day": "Saturday",
        "hours": "9 AM to 9 PM"
      },
      {
        "day": "Sunday",
        "hours": "9 AM to 9 PM"
      }
    ],
    "scrapedAt": "2025-08-07T10:44:01.405Z",
    "source": "apify-google-maps",
    "district": "Cẩm An",
    "districtOrWard": "Cẩm An",
    "combinedScore": 5,
    "processedAt": "2025-08-07T11:12:01.204Z",
    "dataQuality": {
      "hasPhone": true,
      "hasWebsite": false,
      "hasRating": true,
      "hasDistrict": true,
      "hasLocation": true
    }
  },
  {
    "id": "hoi-an-sunshine-spa-nail",
    "name": "SunShine Spa & Nail ( 선샤인스파&네일)",
    "address": "Lạc Long Quân, Hà My Đông A, Hội An, Quảng Nam 560000, Vietnam",
    "city": "Hoi An",
    "phone": "+84 986 442 205",
    "website": "https://sunshinespa.com.vn/",
    "rating": 4.9,
    "reviewCount": 206,
    "priceLevel": null,
    "category": "Massage spa",
    "description": null,
    "imageUrl": "https://lh3.googleusercontent.com/p/AF1QipP9oMOXQFYM8Ha1QAFkiUqyh4Mnlm1AhSBptTPl=w408-h306-k-no",
    "location": {
      "lat": 15.9179441,
      "lng": 108.3291726
    },
    "hours": [
      {
        "day": "Monday",
        "hours": "Open 24 hours"
      },
      {
        "day": "Tuesday",
        "hours": "Open 24 hours"
      },
      {
        "day": "Wednesday",
        "hours": "Open 24 hours"
      },
      {
        "day": "Thursday",
        "hours": "Open 24 hours"
      },
      {
        "day": "Friday",
        "hours": "Open 24 hours"
      },
      {
        "day": "Saturday",
        "hours": "Open 24 hours"
      },
      {
        "day": "Sunday",
        "hours": "Open 24 hours"
      }
    ],
    "scrapedAt": "2025-08-07T10:44:01.405Z",
    "source": "apify-google-maps",
    "district": "Hội An",
    "districtOrWard": "Hội An",
    "combinedScore": 4.93,
    "processedAt": "2025-08-07T11:12:01.204Z",
    "dataQuality": {
      "hasPhone": true,
      "hasWebsite": true,
      "hasRating": true,
      "hasDistrict": true,
      "hasLocation": true
    }
  },
  {
    "id": "hoi-an-moon-spa-best-massge-in-hi-an",
    "name": "MOON SPA Best Massge in Hội An",
    "address": "240 Cửa Đại, Cẩm Sơn, Hội An, Quảng Nam 51000, Vietnam",
    "city": "Hoi An",
    "phone": "+84 925 126 490",
    "website": null,
    "rating": 5,
    "reviewCount": 171,
    "priceLevel": null,
    "category": "Health spa",
    "description": null,
    "imageUrl": "https://lh3.googleusercontent.com/p/AF1QipOs9l9OR1Sth2qjDeKkuoH6lMg6H27OS33Y99PK=w408-h306-k-no",
    "location": {
      "lat": 15.8890727,
      "lng": 108.354381
    },
    "hours": [
      {
        "day": "Monday",
        "hours": "Open 24 hours"
      },
      {
        "day": "Tuesday",
        "hours": "Open 24 hours"
      },
      {
        "day": "Wednesday",
        "hours": "Open 24 hours"
      },
      {
        "day": "Thursday",
        "hours": "Open 24 hours"
      },
      {
        "day": "Friday",
        "hours": "Open 24 hours"
      },
      {
        "day": "Saturday",
        "hours": "Open 24 hours"
      },
      {
        "day": "Sunday",
        "hours": "Open 24 hours"
      }
    ],
    "scrapedAt": "2025-08-07T10:44:01.405Z",
    "source": "apify-google-maps",
    "district": "Unknown",
    "districtOrWard": "Unknown",
    "combinedScore": 5,
    "processedAt": "2025-08-07T11:12:01.204Z",
    "dataQuality": {
      "hasPhone": true,
      "hasWebsite": false,
      "hasRating": true,
      "hasDistrict": true,
      "hasLocation": true
    }
  },
  {
    "id": "hoi-an-thi-thi-spa-hoi-an-number-1-massage-in-hoi-an-free-pick-up-drop-off-hi-an-nng",
    "name": "Thi Thi Spa Hoi An - 호이안 피피 스파 - Number 1 Massage in Hoi An - Free pick up & drop off Hội An & Đà Nẵng",
    "address": "33 Cửa Đại, Hội An, Quảng Nam, Vietnam",
    "city": "Hoi An",
    "phone": "+84 978 909 458",
    "website": "https://www.facebook.com/thithibeautysalon/",
    "rating": 4.9,
    "reviewCount": 585,
    "priceLevel": null,
    "category": "Spa",
    "description": null,
    "imageUrl": "https://lh3.googleusercontent.com/p/AF1QipOVUChM3oUdAxQHLXjym1vuGyP9w4E0xyOP5U8K=w408-h306-k-no",
    "location": {
      "lat": 15.8958904,
      "lng": 108.3637853
    },
    "hours": [
      {
        "day": "Monday",
        "hours": "Open 24 hours"
      },
      {
        "day": "Tuesday",
        "hours": "Open 24 hours"
      },
      {
        "day": "Wednesday",
        "hours": "Open 24 hours"
      },
      {
        "day": "Thursday",
        "hours": "Open 24 hours"
      },
      {
        "day": "Friday",
        "hours": "Open 24 hours"
      },
      {
        "day": "Saturday",
        "hours": "Open 24 hours"
      },
      {
        "day": "Sunday",
        "hours": "Open 24 hours"
      }
    ],
    "scrapedAt": "2025-08-07T10:44:01.405Z",
    "source": "apify-google-maps",
    "district": "Unknown",
    "districtOrWard": "Unknown",
    "combinedScore": 4.93,
    "processedAt": "2025-08-07T11:12:01.204Z",
    "dataQuality": {
      "hasPhone": true,
      "hasWebsite": true,
      "hasRating": true,
      "hasDistrict": true,
      "hasLocation": true
    }
  },
  {
    "id": "hoi-an-sunrise-spa-hi-an-best-massage-in-hi-an",
    "name": "Sunrise Spa Hội An - best massage in Hội An",
    "address": "231 Cửa Đại, Cẩm Châu, Hội An, Quảng Nam, Vietnam",
    "city": "Hoi An",
    "phone": "+84 707 426 627",
    "website": "https://wa.me/message/F64BAZ7YONDBN1",
    "rating": 4.9,
    "reviewCount": 156,
    "priceLevel": null,
    "category": "Spa",
    "description": null,
    "imageUrl": "https://lh3.googleusercontent.com/p/AF1QipOdRaoGmQns_dqe4MpDKRy_nlMTNDmoc0jAPaXY=w408-h408-k-no",
    "location": {
      "lat": 15.885471,
      "lng": 108.3503661
    },
    "hours": [
      {
        "day": "Monday",
        "hours": "Open 24 hours"
      },
      {
        "day": "Tuesday",
        "hours": "Open 24 hours"
      },
      {
        "day": "Wednesday",
        "hours": "Open 24 hours"
      },
      {
        "day": "Thursday",
        "hours": "Open 24 hours"
      },
      {
        "day": "Friday",
        "hours": "Open 24 hours"
      },
      {
        "day": "Saturday",
        "hours": "Open 24 hours"
      },
      {
        "day": "Sunday",
        "hours": "Open 24 hours"
      }
    ],
    "scrapedAt": "2025-08-07T10:44:01.405Z",
    "source": "apify-google-maps",
    "district": "Cẩm Châu",
    "districtOrWard": "Cẩm Châu",
    "combinedScore": 4.93,
    "processedAt": "2025-08-07T11:12:01.204Z",
    "dataQuality": {
      "hasPhone": true,
      "hasWebsite": true,
      "hasRating": true,
      "hasDistrict": true,
      "hasLocation": true
    }
  },
  {
    "id": "hoi-an-massage-therapists-qualified-blind-massage-therapists",
    "name": "Massage Therapists - Qualified Blind Massage Therapists",
    "address": "312 Cửa Đại, Cẩm Sơn, Hội An, Quảng Nam 51000, Vietnam",
    "city": "Hoi An",
    "phone": "+84 905 834 412",
    "website": null,
    "rating": 4.8,
    "reviewCount": 49,
    "priceLevel": null,
    "category": "Massage spa",
    "description": null,
    "imageUrl": "https://lh3.googleusercontent.com/gps-cs-s/AC9h4npHoJAT_jVotiEzLl4YTc11kLpGybUaR2URgPa8cTZmLeQPMGNjua_qamEgDgH0VDyRwqx062ATIAgC03wm92YNiryl8QRA_oaMZUtVYvMtGzh4DLhslERHa5aKroSxE6S9VqBd8w=w408-h306-k-no",
    "location": {
      "lat": 15.8859283,
      "lng": 108.3505385
    },
    "hours": [
      {
        "day": "Monday",
        "hours": "Open 24 hours"
      },
      {
        "day": "Tuesday",
        "hours": "Open 24 hours"
      },
      {
        "day": "Wednesday",
        "hours": "Open 24 hours"
      },
      {
        "day": "Thursday",
        "hours": "Open 24 hours"
      },
      {
        "day": "Friday",
        "hours": "Open 24 hours"
      },
      {
        "day": "Saturday",
        "hours": "Open 24 hours"
      },
      {
        "day": "Sunday",
        "hours": "Open 24 hours"
      }
    ],
    "scrapedAt": "2025-08-07T10:44:01.405Z",
    "source": "apify-google-maps",
    "district": "Unknown",
    "districtOrWard": "Unknown",
    "combinedScore": 4.095,
    "processedAt": "2025-08-07T11:12:01.204Z",
    "dataQuality": {
      "hasPhone": true,
      "hasWebsite": false,
      "hasRating": true,
      "hasDistrict": true,
      "hasLocation": true
    }
  },
  {
    "id": "hoi-an-silver-moon-spa-_-massage-an-bang-beach",
    "name": "Silver Moon Spa ( 실버 문 스파 ) _ Massage An Bang Beach ( 마사지 안방비치 )",
    "address": "134 Nguyễn Phan Vinh, Cẩm An, Hội An, Quảng Nam, Vietnam",
    "city": "Hoi An",
    "phone": "+84 934 959 185",
    "website": "http://www.silvermoonspa.com/",
    "rating": 5,
    "reviewCount": 943,
    "priceLevel": null,
    "category": "Spa",
    "description": null,
    "imageUrl": "https://lh3.googleusercontent.com/gps-cs-s/AC9h4nrbqF-e9jHhu1pulcd6my-HTeTYScf5Zbd7H_X7BBIvUWlJfdrSNj_AvWIRh306ro2UJVepXUsRdDaofVz9ZZahmhy0WC2N7aUDyR4183KpAOz5gL20vHyfECTw46aodOiqKPkurwVhzXc6=w408-h544-k-no",
    "location": {
      "lat": 15.9130075,
      "lng": 108.3384959
    },
    "hours": [
      {
        "day": "Monday",
        "hours": "8:30 AM to 10:30 PM"
      },
      {
        "day": "Tuesday",
        "hours": "8:30 AM to 10:30 PM"
      },
      {
        "day": "Wednesday",
        "hours": "8:30 AM to 10:30 PM"
      },
      {
        "day": "Thursday",
        "hours": "8:30 AM to 10:30 PM"
      },
      {
        "day": "Friday",
        "hours": "8:30 AM to 10:30 PM"
      },
      {
        "day": "Saturday",
        "hours": "8:30 AM to 10:30 PM"
      },
      {
        "day": "Sunday",
        "hours": "8:30 AM to 10:30 PM"
      }
    ],
    "scrapedAt": "2025-08-07T10:44:01.405Z",
    "source": "apify-google-maps",
    "district": "Cẩm An",
    "districtOrWard": "Cẩm An",
    "combinedScore": 5,
    "processedAt": "2025-08-07T11:12:01.204Z",
    "dataQuality": {
      "hasPhone": true,
      "hasWebsite": true,
      "hasRating": true,
      "hasDistrict": true,
      "hasLocation": true
    }
  },
  {
    "id": "hoi-an-hana-spa",
    "name": "HANA SPA",
    "address": "An Bang beach, 150 Nguyễn Phan Vinh, Cẩm An, Hội An, Quảng Nam, Vietnam",
    "city": "Hoi An",
    "phone": "+84 773 288 290",
    "website": null,
    "rating": 5,
    "reviewCount": 61,
    "priceLevel": null,
    "category": "Massage spa",
    "description": null,
    "imageUrl": "https://lh3.googleusercontent.com/gps-cs-s/AC9h4np-_nBxBTP8NJTNtMPDUz_r4AMWunfxYugKdgF0wTUBLI29vcB38JQqY-uJ6f-AnvYu9d1q1XWMg1IUR7CjO26xb4vPA1_t8Hhwokrd6v0w6YDNmdP9Cc94B_lXkDpwNW2bAynR=w408-h544-k-no",
    "location": {
      "lat": 15.9150055,
      "lng": 108.3375395
    },
    "hours": [
      {
        "day": "Monday",
        "hours": "8 AM to 9 PM"
      },
      {
        "day": "Tuesday",
        "hours": "8 AM to 9 PM"
      },
      {
        "day": "Wednesday",
        "hours": "8 AM to 9 PM"
      },
      {
        "day": "Thursday",
        "hours": "8 AM to 9 PM"
      },
      {
        "day": "Friday",
        "hours": "8 AM to 9 PM"
      },
      {
        "day": "Saturday",
        "hours": "8 AM to 9 PM"
      },
      {
        "day": "Sunday",
        "hours": "8 AM to 9 PM"
      }
    ],
    "scrapedAt": "2025-08-07T10:44:01.405Z",
    "source": "apify-google-maps",
    "district": "Cẩm An",
    "districtOrWard": "Cẩm An",
    "combinedScore": 4.415,
    "processedAt": "2025-08-07T11:12:01.204Z",
    "dataQuality": {
      "hasPhone": true,
      "hasWebsite": false,
      "hasRating": true,
      "hasDistrict": true,
      "hasLocation": true
    }
  },
  {
    "id": "hoi-an-suna-spa",
    "name": "Suna Spa - 스파 - 마사지",
    "address": "07 Cửa Đại, Hội An, Quảng Nam, Vietnam",
    "city": "Hoi An",
    "phone": "+84 905 418 843",
    "website": null,
    "rating": 4.9,
    "reviewCount": 86,
    "priceLevel": null,
    "category": "Spa",
    "description": null,
    "imageUrl": "https://lh3.googleusercontent.com/gps-cs-s/AC9h4noHNtl8N-oe4FyeQ0ib7zV9qcZ7pWr6XiPdO7Bx4Yd47PZpy4tclt3Gf5ROaEZbgyIpGwEKnP2-KEiJYiQyDGY_yb3KBYR7oqb2ju-fNUqV7nIvSepNOzeLY4XRm0OfHH7tiexdHw=w408-h544-k-no",
    "location": {
      "lat": 15.8968051,
      "lng": 108.3649611
    },
    "hours": [
      {
        "day": "Monday",
        "hours": "12 AM to 10 PM"
      },
      {
        "day": "Tuesday",
        "hours": "12 AM to 10 PM"
      },
      {
        "day": "Wednesday",
        "hours": "9 AM to 10 PM"
      },
      {
        "day": "Thursday",
        "hours": "9 AM to 10 PM"
      },
      {
        "day": "Friday",
        "hours": "9 AM to 10 PM"
      },
      {
        "day": "Saturday",
        "hours": "9 AM to 10 PM"
      },
      {
        "day": "Sunday",
        "hours": "9 AM to 10 PM"
      }
    ],
    "scrapedAt": "2025-08-07T10:44:01.405Z",
    "source": "apify-google-maps",
    "district": "Unknown",
    "districtOrWard": "Unknown",
    "combinedScore": 4.720000000000001,
    "processedAt": "2025-08-07T11:12:01.204Z",
    "dataQuality": {
      "hasPhone": true,
      "hasWebsite": false,
      "hasRating": true,
      "hasDistrict": true,
      "hasLocation": true
    }
  },
  {
    "id": "hoi-an-la-mer-spa-hoi-an",
    "name": "La Mer spa Hoi An",
    "address": "Đường Khúc Thừa Dụ, Cẩm An, Hội An, Quảng Nam, Vietnam",
    "city": "Hoi An",
    "phone": "+84 763 034 630",
    "website": "https://www.facebook.com/share/18C7kDgBao/?mibextid=wwXIfr",
    "rating": 5,
    "reviewCount": 114,
    "priceLevel": null,
    "category": "Spa",
    "description": null,
    "imageUrl": "https://lh3.googleusercontent.com/p/AF1QipORnndYztAgsvxVVbSYrQ0hQqw_np3-B4YTg5_b=w408-h406-k-no",
    "location": {
      "lat": 15.9088204,
      "lng": 108.3430122
    },
    "hours": [
      {
        "day": "Monday",
        "hours": "9 AM to 10 PM"
      },
      {
        "day": "Tuesday",
        "hours": "9 AM to 10 PM"
      },
      {
        "day": "Wednesday",
        "hours": "9 AM to 10 PM"
      },
      {
        "day": "Thursday",
        "hours": "9 AM to 10 PM"
      },
      {
        "day": "Friday",
        "hours": "9 AM to 10 PM"
      },
      {
        "day": "Saturday",
        "hours": "9 AM to 10 PM"
      },
      {
        "day": "Sunday",
        "hours": "9 AM to 10 PM"
      }
    ],
    "scrapedAt": "2025-08-07T10:44:01.405Z",
    "source": "apify-google-maps",
    "district": "Cẩm An",
    "districtOrWard": "Cẩm An",
    "combinedScore": 5,
    "processedAt": "2025-08-07T11:12:01.204Z",
    "dataQuality": {
      "hasPhone": true,
      "hasWebsite": true,
      "hasRating": true,
      "hasDistrict": true,
      "hasLocation": true
    }
  },
  {
    "id": "hoi-an-bliss-spa",
    "name": "Bliss Spa",
    "address": "18 Nguyễn Phan Vinh, Cẩm An, Hội An, Quảng Nam, Vietnam",
    "city": "Hoi An",
    "phone": null,
    "website": null,
    "rating": 5,
    "reviewCount": 24,
    "priceLevel": null,
    "category": "Spa",
    "description": null,
    "imageUrl": "https://lh3.googleusercontent.com/gps-cs-s/AC9h4nq4gfftd4YGIfiFYEDYoe_uGRivFFqHa7b1vhxBJTNRsrNM_zrWIt0h1c0K7vlQxClzu593k1FsagHTATsIEeVcO0j0HBaZ7aqQrxihaly0eWz3z15YCcdarNVB7TbztimW7ErweA=w408-h906-k-no",
    "location": {
      "lat": 15.9075567,
      "lng": 108.3491518
    },
    "hours": [],
    "scrapedAt": "2025-08-07T10:44:01.405Z",
    "source": "apify-google-maps",
    "district": "Cẩm An",
    "districtOrWard": "Cẩm An",
    "combinedScore": 3.8599999999999994,
    "processedAt": "2025-08-07T11:12:01.204Z",
    "dataQuality": {
      "hasPhone": false,
      "hasWebsite": false,
      "hasRating": true,
      "hasDistrict": true,
      "hasLocation": true
    }
  },
  {
    "id": "hoi-an-rosara-spa",
    "name": "Rosara Spa",
    "address": "21 Nguyễn Hiền, Sơn Phong, Hội An, Quảng Nam 56000, Vietnam",
    "city": "Hoi An",
    "phone": "+84 969 832 266",
    "website": "https://rosaraspa.com/",
    "rating": 5,
    "reviewCount": 127,
    "priceLevel": null,
    "category": "Spa",
    "description": null,
    "imageUrl": "https://lh3.googleusercontent.com/p/AF1QipNQC8jNObnstb-gi-igFbLSaqrot26O0UjOMFx7=w426-h240-k-no",
    "location": {
      "lat": 15.8874885,
      "lng": 108.3288872
    },
    "hours": [
      {
        "day": "Monday",
        "hours": "8 AM to 10 PM"
      },
      {
        "day": "Tuesday",
        "hours": "8 AM to 10 PM"
      },
      {
        "day": "Wednesday",
        "hours": "8 AM to 10 PM"
      },
      {
        "day": "Thursday",
        "hours": "8 AM to 10 PM"
      },
      {
        "day": "Friday",
        "hours": "8 AM to 10 PM"
      },
      {
        "day": "Saturday",
        "hours": "8 AM to 10 PM"
      },
      {
        "day": "Sunday",
        "hours": "8 AM to 10 PM"
      }
    ],
    "scrapedAt": "2025-08-07T10:44:01.405Z",
    "source": "apify-google-maps",
    "district": "Sơn Phong",
    "districtOrWard": "Sơn Phong",
    "combinedScore": 5,
    "processedAt": "2025-08-07T11:12:01.204Z",
    "dataQuality": {
      "hasPhone": true,
      "hasWebsite": true,
      "hasRating": true,
      "hasDistrict": true,
      "hasLocation": true
    }
  },
  {
    "id": "hoi-an-la-soie-spa",
    "name": "La Soie Spa",
    "address": "41-43 Phạm Văn Đồng, Tân An, Hội An, Quảng Nam 560000, Vietnam",
    "city": "Hoi An",
    "phone": "+84 935 862 097",
    "website": "https://silkvillage.mulberrycollectionvn.com/spa/",
    "rating": 4.8,
    "reviewCount": 52,
    "priceLevel": null,
    "category": "Spa",
    "description": null,
    "imageUrl": "https://lh3.googleusercontent.com/p/AF1QipPslSa3yoPD4McS1sjilSWWS462RDOR5-GvooaT=w408-h272-k-no",
    "location": {
      "lat": 15.8894497,
      "lng": 108.320482
    },
    "hours": [
      {
        "day": "Monday",
        "hours": "10 AM to 7 PM"
      },
      {
        "day": "Tuesday",
        "hours": "10 AM to 7 PM"
      },
      {
        "day": "Wednesday",
        "hours": "10 AM to 7 PM"
      },
      {
        "day": "Thursday",
        "hours": "10 AM to 7 PM"
      },
      {
        "day": "Friday",
        "hours": "10 AM to 7 PM"
      },
      {
        "day": "Saturday",
        "hours": "10 AM to 7 PM"
      },
      {
        "day": "Sunday",
        "hours": "10 AM to 7 PM"
      }
    ],
    "scrapedAt": "2025-08-07T10:44:01.405Z",
    "source": "apify-google-maps",
    "district": "Tân An",
    "districtOrWard": "Tân An",
    "combinedScore": 4.14,
    "processedAt": "2025-08-07T11:12:01.204Z",
    "dataQuality": {
      "hasPhone": true,
      "hasWebsite": true,
      "hasRating": true,
      "hasDistrict": true,
      "hasLocation": true
    }
  },
  {
    "id": "hoi-an-spa-binh-khang",
    "name": "SPA BINH KHANG",
    "address": "206 Lê Thánh Tông, Cẩm Châu, Hội An, Quảng Nam, Vietnam",
    "city": "Hoi An",
    "phone": "+84 905 136 315",
    "website": null,
    "rating": 4.9,
    "reviewCount": 74,
    "priceLevel": null,
    "category": "Massage spa",
    "description": null,
    "imageUrl": "https://lh3.googleusercontent.com/p/AF1QipNtus11bDvQm-_F-VUuw4bm7gQ04aNz14QED4NH=w408-h499-k-no",
    "location": {
      "lat": 15.8853456,
      "lng": 108.3477448
    },
    "hours": [
      {
        "day": "Monday",
        "hours": "8 AM to 8 PM"
      },
      {
        "day": "Tuesday",
        "hours": "8 AM to 8 PM"
      },
      {
        "day": "Wednesday",
        "hours": "8 AM to 8 PM"
      },
      {
        "day": "Thursday",
        "hours": "8 AM to 8 PM"
      },
      {
        "day": "Friday",
        "hours": "8 AM to 8 PM"
      },
      {
        "day": "Saturday",
        "hours": "8 AM to 8 PM"
      },
      {
        "day": "Sunday",
        "hours": "8 AM to 8 PM"
      }
    ],
    "scrapedAt": "2025-08-07T10:44:01.405Z",
    "source": "apify-google-maps",
    "district": "Cẩm Châu",
    "districtOrWard": "Cẩm Châu",
    "combinedScore": 4.54,
    "processedAt": "2025-08-07T11:12:01.204Z",
    "dataQuality": {
      "hasPhone": true,
      "hasWebsite": false,
      "hasRating": true,
      "hasDistrict": true,
      "hasLocation": true
    }
  },
  {
    "id": "hoi-an-lotus-spa",
    "name": "Lotus Spa",
    "address": "Tan Thinh - Tan My Residential Area, Cẩm An, Quảng Nam 560000, Vietnam",
    "city": "Hoi An",
    "phone": "+84 235 3754 999",
    "website": "https://silksenseresort.com/spa/sense-spa",
    "rating": 5,
    "reviewCount": 2,
    "priceLevel": null,
    "category": "Spa",
    "description": null,
    "imageUrl": "https://lh3.googleusercontent.com/p/AF1QipNnfMT8NBfiPXcvsx15-Sx7CqOeEdYu47Zjq8xV=w408-h272-k-no",
    "location": {
      "lat": 15.8994768,
      "lng": 108.3572994
    },
    "hours": [
      {
        "day": "Monday",
        "hours": "9 AM to 10 PM"
      },
      {
        "day": "Tuesday",
        "hours": "9 AM to 10 PM"
      },
      {
        "day": "Wednesday",
        "hours": "9 AM to 10 PM"
      },
      {
        "day": "Thursday",
        "hours": "9 AM to 10 PM"
      },
      {
        "day": "Friday",
        "hours": "9 AM to 10 PM"
      },
      {
        "day": "Saturday",
        "hours": "9 AM to 10 PM"
      },
      {
        "day": "Sunday",
        "hours": "9 AM to 10 PM"
      }
    ],
    "scrapedAt": "2025-08-07T10:44:01.405Z",
    "source": "apify-google-maps",
    "district": "Cẩm An",
    "districtOrWard": "Cẩm An",
    "combinedScore": 3.53,
    "processedAt": "2025-08-07T11:12:01.204Z",
    "dataQuality": {
      "hasPhone": true,
      "hasWebsite": true,
      "hasRating": true,
      "hasDistrict": true,
      "hasLocation": true
    }
  },
  {
    "id": "hoi-an-the-mango-spa-hoian",
    "name": "The Mango Spa Hoian",
    "address": "33 Nguyễn Phan Vinh, Cẩm An, Hội An, Quảng Nam, Vietnam",
    "city": "Hoi An",
    "phone": "+84 796 652 339",
    "website": "https://www.facebook.com/profile.php?id=61554489775449&mibextid=LQQJ4d",
    "rating": 5,
    "reviewCount": 349,
    "priceLevel": null,
    "category": "Spa",
    "description": null,
    "imageUrl": "https://lh3.googleusercontent.com/p/AF1QipMe8DN7LMGRpAG-Z_i0mxvemmpQonhvdJsM6ZKH=w408-h240-k-no",
    "location": {
      "lat": 15.9085678,
      "lng": 108.3472418
    },
    "hours": [
      {
        "day": "Monday",
        "hours": "8:30 AM to 10 PM"
      },
      {
        "day": "Tuesday",
        "hours": "12 AM to 10 PM"
      },
      {
        "day": "Wednesday",
        "hours": "8:30 AM to 10 PM"
      },
      {
        "day": "Thursday",
        "hours": "8:30 AM to 10 PM"
      },
      {
        "day": "Friday",
        "hours": "8:30 AM to 10 PM"
      },
      {
        "day": "Saturday",
        "hours": "8:30 AM to 10 PM"
      },
      {
        "day": "Sunday",
        "hours": "9 AM to 10 PM"
      }
    ],
    "scrapedAt": "2025-08-07T10:44:01.405Z",
    "source": "apify-google-maps",
    "district": "Cẩm An",
    "districtOrWard": "Cẩm An",
    "combinedScore": 5,
    "processedAt": "2025-08-07T11:12:01.204Z",
    "dataQuality": {
      "hasPhone": true,
      "hasWebsite": true,
      "hasRating": true,
      "hasDistrict": true,
      "hasLocation": true
    }
  },
  {
    "id": "hoi-an-aly-garden-spa",
    "name": "Aly Garden Spa",
    "address": "73 Thích Quảng Đức, Tân An, Hội An, Quảng Nam 560000, Vietnam",
    "city": "Hoi An",
    "phone": "+84 905 640 171",
    "website": null,
    "rating": 5,
    "reviewCount": 45,
    "priceLevel": null,
    "category": "Massage spa",
    "description": null,
    "imageUrl": "https://lh3.googleusercontent.com/p/AF1QipMrjTzb83VChdNx8tilLVZMxS-QU0yJW4HWVlwH=w533-h240-k-no",
    "location": {
      "lat": 15.888534,
      "lng": 108.3276943
    },
    "hours": [
      {
        "day": "Monday",
        "hours": "9 AM to 9:30 PM"
      },
      {
        "day": "Tuesday",
        "hours": "9 AM to 9:30 PM"
      },
      {
        "day": "Wednesday",
        "hours": "9 AM to 9:30 PM"
      },
      {
        "day": "Thursday",
        "hours": "9 AM to 9:30 PM"
      },
      {
        "day": "Friday",
        "hours": "9 AM to 9:30 PM"
      },
      {
        "day": "Saturday",
        "hours": "9:30 AM to 10 PM"
      },
      {
        "day": "Sunday",
        "hours": "9:30 AM to 10 PM"
      }
    ],
    "scrapedAt": "2025-08-07T10:44:01.405Z",
    "source": "apify-google-maps",
    "district": "Tân An",
    "districtOrWard": "Tân An",
    "combinedScore": 4.175,
    "processedAt": "2025-08-07T11:12:01.204Z",
    "dataQuality": {
      "hasPhone": true,
      "hasWebsite": false,
      "hasRating": true,
      "hasDistrict": true,
      "hasLocation": true
    }
  },
  {
    "id": "hoi-an-hoi-an-town-spa-coffee",
    "name": "Hoi An Town Spa & Coffee",
    "address": "Trảng Kèo 6, Cẩm Hà, Hội An, Quảng Nam, Vietnam",
    "city": "Hoi An",
    "phone": "+84 235 2222 345",
    "website": "http://hoiantownhomeresort.com/",
    "rating": 4.8,
    "reviewCount": 17,
    "priceLevel": null,
    "category": "Health spa",
    "description": null,
    "imageUrl": "https://lh3.googleusercontent.com/gps-cs-s/AC9h4noVIS07pkbjxbHL8f9AWrCw548_ft8PAnzyLc4WheralgAeoVH_ERC2ezKQDjhn49XxNpmEt6-nSihsugoivhJe_-gY3yQcyqMGtXzuesBcj2g0qFH2de0oQmcbtYFGA9rKBMhXyg=w426-h240-k-no",
    "location": {
      "lat": 15.8966904,
      "lng": 108.3192271
    },
    "hours": [
      {
        "day": "Monday",
        "hours": "6 AM to 10 PM"
      },
      {
        "day": "Tuesday",
        "hours": "6 AM to 10 PM"
      },
      {
        "day": "Wednesday",
        "hours": "6 AM to 10 PM"
      },
      {
        "day": "Thursday",
        "hours": "6 AM to 10 PM"
      },
      {
        "day": "Friday",
        "hours": "6 AM to 10 PM"
      },
      {
        "day": "Saturday",
        "hours": "6 AM to 10 PM"
      },
      {
        "day": "Sunday",
        "hours": "6 AM to 10 PM"
      }
    ],
    "scrapedAt": "2025-08-07T10:44:01.405Z",
    "source": "apify-google-maps",
    "district": "Cẩm Hà",
    "districtOrWard": "Cẩm Hà",
    "combinedScore": 3.6149999999999998,
    "processedAt": "2025-08-07T11:12:01.204Z",
    "dataQuality": {
      "hasPhone": true,
      "hasWebsite": true,
      "hasRating": true,
      "hasDistrict": true,
      "hasLocation": true
    }
  },
  {
    "id": "hoi-an-champa-massage-spa",
    "name": "CHAMPA Massage & Spa",
    "address": "Đ. Tuy Nhạc, Cẩm An, Hội An, Quảng Nam, Vietnam",
    "city": "Hoi An",
    "phone": "+84 905 588 822",
    "website": "https://www.champaspahoian.com/",
    "rating": 5,
    "reviewCount": 2,
    "priceLevel": null,
    "category": "Spa",
    "description": null,
    "imageUrl": "https://lh3.googleusercontent.com/p/AF1QipPi_onWDGAW1azlTjKyF8PnOhTD3JoypD9JH5lE=w408-h544-k-no",
    "location": {
      "lat": 15.9064464,
      "lng": 108.3467861
    },
    "hours": [
      {
        "day": "Monday",
        "hours": "6:30 AM to 10 PM"
      },
      {
        "day": "Tuesday",
        "hours": "6:30 AM to 10 PM"
      },
      {
        "day": "Wednesday",
        "hours": "6:30 AM to 10 PM"
      },
      {
        "day": "Thursday",
        "hours": "6:30 AM to 10 PM"
      },
      {
        "day": "Friday",
        "hours": "6:30 AM to 10 PM"
      },
      {
        "day": "Saturday",
        "hours": "6:30 AM to 10 PM"
      },
      {
        "day": "Sunday",
        "hours": "6:30 AM to 10 PM"
      }
    ],
    "scrapedAt": "2025-08-07T10:44:01.405Z",
    "source": "apify-google-maps",
    "district": "Cẩm An",
    "districtOrWard": "Cẩm An",
    "combinedScore": 3.53,
    "processedAt": "2025-08-07T11:12:01.204Z",
    "dataQuality": {
      "hasPhone": true,
      "hasWebsite": true,
      "hasRating": true,
      "hasDistrict": true,
      "hasLocation": true
    }
  },
  {
    "id": "hoi-an-white-orchids-spa-hoi-an",
    "name": "White Orchids Spa Hoi an",
    "address": "15 Mạc Đĩnh Chi, Cẩm Sơn, Hội An, Quảng Nam 56000, Vietnam",
    "city": "Hoi An",
    "phone": "+84 977 161 567",
    "website": "https://whiteorchidspahoian.com/",
    "rating": 4.9,
    "reviewCount": 5487,
    "priceLevel": null,
    "category": "Spa",
    "description": null,
    "imageUrl": "https://lh3.googleusercontent.com/p/AF1QipO5c_ZnJOCRIhOrmGQRkXLoVLN9U7-KRnk63nRC=w408-h408-k-no",
    "location": {
      "lat": 15.8881917,
      "lng": 108.3290897
    },
    "hours": [
      {
        "day": "Monday",
        "hours": "8:30 AM to 10:30 PM"
      },
      {
        "day": "Tuesday",
        "hours": "8:30 AM to 10:30 PM"
      },
      {
        "day": "Wednesday",
        "hours": "8:30 AM to 10:30 PM"
      },
      {
        "day": "Thursday",
        "hours": "8:30 AM to 10:30 PM"
      },
      {
        "day": "Friday",
        "hours": "8:30 AM to 10:30 PM"
      },
      {
        "day": "Saturday",
        "hours": "8:30 AM to 10:30 PM"
      },
      {
        "day": "Sunday",
        "hours": "8:30 AM to 10:30 PM"
      }
    ],
    "scrapedAt": "2025-08-07T10:44:01.405Z",
    "source": "apify-google-maps",
    "district": "Hội An",
    "districtOrWard": "Hội An",
    "combinedScore": 4.93,
    "processedAt": "2025-08-07T11:12:01.204Z",
    "dataQuality": {
      "hasPhone": true,
      "hasWebsite": true,
      "hasRating": true,
      "hasDistrict": true,
      "hasLocation": true
    }
  },
  {
    "id": "hoi-an-hoi-an-golden-bamboo-villa-spa",
    "name": "Hoi An Golden Bamboo Villa & Spa",
    "address": "Đường 18 Đ. Hai Bà Trưng, Cẩm An, Hội An, Quảng Nam, Vietnam",
    "city": "Hoi An",
    "phone": "+84 969 438 843",
    "website": "https://blog.naver.com/goldenbambooha/223154074470",
    "rating": 4.7,
    "reviewCount": 202,
    "priceLevel": null,
    "category": "Massage spa",
    "description": null,
    "imageUrl": "https://lh3.googleusercontent.com/gps-cs-s/AC9h4nrw73kCD1Pq1UFLT4NzNvW4v8VpkbbPnjye-UlPRgsya8DWWMODL7zo--hU10SaBVdzRCxK8I-bj-c-dEkqlwDabHRnHHh1GfHkdypfDEp2Cf0dnjFrT7N2z2zkGDgjzEnWFaQ2KWc4jJMj=w408-h544-k-no",
    "location": {
      "lat": 15.9127433,
      "lng": 108.3403827
    },
    "hours": [
      {
        "day": "Monday",
        "hours": "10 AM to 10 PM"
      },
      {
        "day": "Tuesday",
        "hours": "10 AM to 10 PM"
      },
      {
        "day": "Wednesday",
        "hours": "10 AM to 10 PM"
      },
      {
        "day": "Thursday",
        "hours": "10 AM to 10 PM"
      },
      {
        "day": "Friday",
        "hours": "10 AM to 10 PM"
      },
      {
        "day": "Saturday",
        "hours": "10 AM to 10 PM"
      },
      {
        "day": "Sunday",
        "hours": "10 AM to 10 PM"
      }
    ],
    "scrapedAt": "2025-08-07T10:44:01.405Z",
    "source": "apify-google-maps",
    "district": "Cẩm An",
    "districtOrWard": "Cẩm An",
    "combinedScore": 4.79,
    "processedAt": "2025-08-07T11:12:01.204Z",
    "dataQuality": {
      "hasPhone": true,
      "hasWebsite": true,
      "hasRating": true,
      "hasDistrict": true,
      "hasLocation": true
    }
  },
  {
    "id": "hoi-an-lia-spa",
    "name": "LiA SPA 호이안 최고의 마사지 스파",
    "address": "05 Phan Tình, Cửa Đại, Hội An, Quảng Nam 51000, Vietnam",
    "city": "Hoi An",
    "phone": "+84 766 567 983",
    "website": "https://www.facebook.com/share/19ygpHhJHD/?mibextid=wwXIfr",
    "rating": 4.9,
    "reviewCount": 43,
    "priceLevel": null,
    "category": "Health spa",
    "description": null,
    "imageUrl": "https://lh3.googleusercontent.com/p/AF1QipPp5YOSLRd7bicvG1qmMK-J31S6BcTJJLnkwkdi=w426-h240-k-no",
    "location": {
      "lat": 15.8981946,
      "lng": 108.3622456
    },
    "hours": [
      {
        "day": "Monday",
        "hours": "7:30 AM to 10 PM"
      },
      {
        "day": "Tuesday",
        "hours": "7:30 AM to 10 PM"
      },
      {
        "day": "Wednesday",
        "hours": "7:30 AM to 10 PM"
      },
      {
        "day": "Thursday",
        "hours": "7:30 AM to 10 PM"
      },
      {
        "day": "Friday",
        "hours": "7:30 AM to 10 PM"
      },
      {
        "day": "Saturday",
        "hours": "7:30 AM to 10 PM"
      },
      {
        "day": "Sunday",
        "hours": "12 AM to 10 PM"
      }
    ],
    "scrapedAt": "2025-08-07T10:44:01.405Z",
    "source": "apify-google-maps",
    "district": "Hội An",
    "districtOrWard": "Hội An",
    "combinedScore": 4.075,
    "processedAt": "2025-08-07T11:12:01.204Z",
    "dataQuality": {
      "hasPhone": true,
      "hasWebsite": true,
      "hasRating": true,
      "hasDistrict": true,
      "hasLocation": true
    }
  },
  {
    "id": "hoi-an-mc-simply-natural-spa",
    "name": "Mộc simply & natural Spa",
    "address": "29A Nguyễn Phan Vinh, Cẩm An, Hội An, Quảng Nam, Vietnam",
    "city": "Hoi An",
    "phone": "+84 934 971 558",
    "website": null,
    "rating": 5,
    "reviewCount": 108,
    "priceLevel": null,
    "category": "Massage spa",
    "description": null,
    "imageUrl": "https://lh3.googleusercontent.com/p/AF1QipPJmxnVi66ufow5dat9n5tUeRVp4TSKFqlW_8c1=w408-h305-k-no",
    "location": {
      "lat": 15.9083942,
      "lng": 108.3476017
    },
    "hours": [
      {
        "day": "Monday",
        "hours": "9 AM to 10 PM"
      },
      {
        "day": "Tuesday",
        "hours": "9 AM to 10 PM"
      },
      {
        "day": "Wednesday",
        "hours": "9 AM to 10 PM"
      },
      {
        "day": "Thursday",
        "hours": "9 AM to 10 PM"
      },
      {
        "day": "Friday",
        "hours": "9 AM to 10 PM"
      },
      {
        "day": "Saturday",
        "hours": "9 AM to 10 PM"
      },
      {
        "day": "Sunday",
        "hours": "9 AM to 10 PM"
      }
    ],
    "scrapedAt": "2025-08-07T10:44:01.405Z",
    "source": "apify-google-maps",
    "district": "Cẩm An",
    "districtOrWard": "Cẩm An",
    "combinedScore": 5,
    "processedAt": "2025-08-07T11:12:01.204Z",
    "dataQuality": {
      "hasPhone": true,
      "hasWebsite": false,
      "hasRating": true,
      "hasDistrict": true,
      "hasLocation": true
    }
  },
  {
    "id": "hoi-an-be-be-spa-gel",
    "name": "Be be Spa & Gel",
    "address": "04 Cửa Đại, st, Hội An, Quảng Nam, Vietnam",
    "city": "Hoi An",
    "phone": "+84 905 572 084",
    "website": null,
    "rating": 4.9,
    "reviewCount": 108,
    "priceLevel": null,
    "category": "Massage spa",
    "description": null,
    "imageUrl": "https://lh3.googleusercontent.com/gps-cs-s/AC9h4nqOyU-yqwpRbSQz3XupEMg5vhdJ3tF1nd3ExntvRjex1SBi_5DkeJDhAh1ufQASxnPOmNX1-waZCCHc9aG8qSBSa1laSwiwk-56BrM70s6Br_9RCUKp4nQl6sTz00ehujYFAFbglPmBDxxC=w408-h544-k-no",
    "location": {
      "lat": 15.8974232,
      "lng": 108.3655783
    },
    "hours": [
      {
        "day": "Monday",
        "hours": "8 AM to 10 PM"
      },
      {
        "day": "Tuesday",
        "hours": "12 AM to 10 PM"
      },
      {
        "day": "Wednesday",
        "hours": "8 AM to 10 PM"
      },
      {
        "day": "Thursday",
        "hours": "8 AM to 10 PM"
      },
      {
        "day": "Friday",
        "hours": "8 AM to 10 PM"
      },
      {
        "day": "Saturday",
        "hours": "8 AM to 10 PM"
      },
      {
        "day": "Sunday",
        "hours": "8 AM to 10 PM"
      }
    ],
    "scrapedAt": "2025-08-07T10:44:01.405Z",
    "source": "apify-google-maps",
    "district": "Unknown",
    "districtOrWard": "Unknown",
    "combinedScore": 4.93,
    "processedAt": "2025-08-07T11:12:01.204Z",
    "dataQuality": {
      "hasPhone": true,
      "hasWebsite": false,
      "hasRating": true,
      "hasDistrict": true,
      "hasLocation": true
    }
  },
  {
    "id": "hoi-an-spa-lin-mi",
    "name": "Spa Lin Mi",
    "address": "205 Nguyễn Phan Vinh, An Bàng, Hội An, Quảng Nam, Vietnam",
    "city": "Hoi An",
    "phone": "+84 704 668 205",
    "website": null,
    "rating": 5,
    "reviewCount": 105,
    "priceLevel": null,
    "category": "Spa",
    "description": null,
    "imageUrl": "https://lh3.googleusercontent.com/gps-cs-s/AC9h4nqghoj6acp-DReezV3qXAtpzkV4iqhvGd73AqPsyy4oALguUpUh-4BSAlx7lPwsKmfEI4ZXL4AWDD2wSt-phiXHQX5afCLrr_RjlOwSsczPN-ugw0LWF2oUg8yjG4CNI-Rl063f=w408-h530-k-no",
    "location": {
      "lat": 15.9145231,
      "lng": 108.3348928
    },
    "hours": [
      {
        "day": "Monday",
        "hours": "7 AM to 10 PM"
      },
      {
        "day": "Tuesday",
        "hours": "7 AM to 10 PM"
      },
      {
        "day": "Wednesday",
        "hours": "7 AM to 10 PM"
      },
      {
        "day": "Thursday",
        "hours": "7 AM to 10 PM"
      },
      {
        "day": "Friday",
        "hours": "7 AM to 10 PM"
      },
      {
        "day": "Saturday",
        "hours": "7 AM to 10 PM"
      },
      {
        "day": "Sunday",
        "hours": "7 AM to 10 PM"
      }
    ],
    "scrapedAt": "2025-08-07T10:44:01.405Z",
    "source": "apify-google-maps",
    "district": "Hội An",
    "districtOrWard": "Hội An",
    "combinedScore": 5,
    "processedAt": "2025-08-07T11:12:01.204Z",
    "dataQuality": {
      "hasPhone": true,
      "hasWebsite": false,
      "hasRating": true,
      "hasDistrict": true,
      "hasLocation": true
    }
  },
  {
    "id": "hoi-an-ana-spa",
    "name": "Ana Spa",
    "address": "101 Cửa Đại, Cẩm Sơn, Hội An, Quảng Nam, Vietnam",
    "city": "Hoi An",
    "phone": "+84 582 999 959",
    "website": "https://www.facebook.com/share/Dh134CmXfaMyPkD7/?mibextid=LQQJ4d",
    "rating": 4.7,
    "reviewCount": 60,
    "priceLevel": null,
    "category": "Health spa",
    "description": null,
    "imageUrl": "https://lh3.googleusercontent.com/p/AF1QipNEeHzY4H1KYr2_Ca0gTcKCXqszgTAz1qVcdTcb=w408-h544-k-no",
    "location": {
      "lat": 15.8920124,
      "lng": 108.3606325
    },
    "hours": [
      {
        "day": "Monday",
        "hours": "10 AM to 10 PM"
      },
      {
        "day": "Tuesday",
        "hours": "10 AM to 10 PM"
      },
      {
        "day": "Wednesday",
        "hours": "10 AM to 10 PM"
      },
      {
        "day": "Thursday",
        "hours": "10 AM to 10 PM"
      },
      {
        "day": "Friday",
        "hours": "10 AM to 10 PM"
      },
      {
        "day": "Saturday",
        "hours": "10 AM to 10 PM"
      },
      {
        "day": "Sunday",
        "hours": "10 AM to 10 PM"
      }
    ],
    "scrapedAt": "2025-08-07T10:44:01.405Z",
    "source": "apify-google-maps",
    "district": "Unknown",
    "districtOrWard": "Unknown",
    "combinedScore": 4.19,
    "processedAt": "2025-08-07T11:12:01.204Z",
    "dataQuality": {
      "hasPhone": true,
      "hasWebsite": true,
      "hasRating": true,
      "hasDistrict": true,
      "hasLocation": true
    }
  },
  {
    "id": "hoi-an-kim-thu-spa",
    "name": "Kim Thu Spa",
    "address": "Lý Thái Tổ, Cẩm Sơn, Hội An, Quảng Nam, Vietnam",
    "city": "Hoi An",
    "phone": "+84 909 365 567",
    "website": "https://kim-thu-spa.webflow.io/",
    "rating": 5,
    "reviewCount": 123,
    "priceLevel": null,
    "category": "Spa",
    "description": null,
    "imageUrl": "https://lh3.googleusercontent.com/p/AF1QipPQkcXHrPAUAVWBFugcLSb1yA_vtaSD_nnLabnL=w408-h305-k-no",
    "location": {
      "lat": 15.8869728,
      "lng": 108.3316841
    },
    "hours": [
      {
        "day": "Monday",
        "hours": "9 AM to 9 PM"
      },
      {
        "day": "Tuesday",
        "hours": "9 AM to 9 PM"
      },
      {
        "day": "Wednesday",
        "hours": "9 AM to 9 PM"
      },
      {
        "day": "Thursday",
        "hours": "9 AM to 9 PM"
      },
      {
        "day": "Friday",
        "hours": "9 AM to 9 PM"
      },
      {
        "day": "Saturday",
        "hours": "9 AM to 9 PM"
      },
      {
        "day": "Sunday",
        "hours": "9 AM to 9 PM"
      }
    ],
    "scrapedAt": "2025-08-07T10:44:01.405Z",
    "source": "apify-google-maps",
    "district": "Hội An",
    "districtOrWard": "Hội An",
    "combinedScore": 5,
    "processedAt": "2025-08-07T11:12:01.204Z",
    "dataQuality": {
      "hasPhone": true,
      "hasWebsite": true,
      "hasRating": true,
      "hasDistrict": true,
      "hasLocation": true
    }
  },
  {
    "id": "hoi-an-spa-nhu-my",
    "name": "Spa Nhu My",
    "address": "153/6 Lê Thánh Tông, Cẩm Châu, Hội An, Quảng Nam, Vietnam",
    "city": "Hoi An",
    "phone": "+84 906 496 583",
    "website": null,
    "rating": 4.4,
    "reviewCount": 38,
    "priceLevel": null,
    "category": "Hot bedstone spa",
    "description": null,
    "imageUrl": "https://lh3.googleusercontent.com/p/AF1QipPiZuYgxcOK7XINqs7hPF8sPNehy0BqyAoemfiN=w519-h240-k-no",
    "location": {
      "lat": 15.8873306,
      "lng": 108.3479888
    },
    "hours": [
      {
        "day": "Monday",
        "hours": "7 AM to 10 PM"
      },
      {
        "day": "Tuesday",
        "hours": "7 AM to 10 PM"
      },
      {
        "day": "Wednesday",
        "hours": "7 AM to 10 PM"
      },
      {
        "day": "Thursday",
        "hours": "7 AM to 10 PM"
      },
      {
        "day": "Friday",
        "hours": "7 AM to 10 PM"
      },
      {
        "day": "Saturday",
        "hours": "7 AM to 10 PM"
      },
      {
        "day": "Sunday",
        "hours": "7 AM to 10 PM"
      }
    ],
    "scrapedAt": "2025-08-07T10:44:01.405Z",
    "source": "apify-google-maps",
    "district": "Cẩm Châu",
    "districtOrWard": "Cẩm Châu",
    "combinedScore": 3.65,
    "processedAt": "2025-08-07T11:12:01.204Z",
    "dataQuality": {
      "hasPhone": true,
      "hasWebsite": false,
      "hasRating": true,
      "hasDistrict": true,
      "hasLocation": true
    }
  },
  {
    "id": "hoi-an-daisy-spa",
    "name": "Daisy spa",
    "address": "Triệu Quốc Đạt, Cẩm An, Hội An, Quảng Nam, Vietnam",
    "city": "Hoi An",
    "phone": "+84 779 527 609",
    "website": null,
    "rating": 4.9,
    "reviewCount": 15,
    "priceLevel": null,
    "category": "Spa",
    "description": null,
    "imageUrl": "https://lh3.googleusercontent.com/p/AF1QipPRMZ9fNW7iqWWmYNO1L9y7N-1pg8NeztgjDxYl=w426-h240-k-no",
    "location": {
      "lat": 15.9050607,
      "lng": 108.3476624
    },
    "hours": [
      {
        "day": "Monday",
        "hours": "9 AM to 9 PM"
      },
      {
        "day": "Tuesday",
        "hours": "9 AM to 9 PM"
      },
      {
        "day": "Wednesday",
        "hours": "9 AM to 9 PM"
      },
      {
        "day": "Thursday",
        "hours": "9 AM to 9 PM"
      },
      {
        "day": "Friday",
        "hours": "9 AM to 9 PM"
      },
      {
        "day": "Saturday",
        "hours": "9 AM to 9 PM"
      },
      {
        "day": "Sunday",
        "hours": "9 AM to 9 PM"
      }
    ],
    "scrapedAt": "2025-08-07T10:44:01.405Z",
    "source": "apify-google-maps",
    "district": "Cẩm An",
    "districtOrWard": "Cẩm An",
    "combinedScore": 3.6550000000000002,
    "processedAt": "2025-08-07T11:12:01.204Z",
    "dataQuality": {
      "hasPhone": true,
      "hasWebsite": false,
      "hasRating": true,
      "hasDistrict": true,
      "hasLocation": true
    }
  },
  {
    "id": "hoi-an-long-lanh-spa",
    "name": "Long Lanh Spa",
    "address": "Đống Đa, Cẩm An, Hội An, Quảng Nam, Vietnam",
    "city": "Hoi An",
    "phone": "+84 934 734 914",
    "website": "http://www.thehoian.com/",
    "rating": 4.6,
    "reviewCount": 29,
    "priceLevel": null,
    "category": "Massage spa",
    "description": null,
    "imageUrl": "https://lh3.googleusercontent.com/p/AF1QipPljHbhzbfTfDk22yT_BY9iL936GP48KVslSssa=w408-h306-k-no",
    "location": {
      "lat": 15.8998552,
      "lng": 108.3568153
    },
    "hours": [
      {
        "day": "Monday",
        "hours": "7 AM to 11 PM"
      },
      {
        "day": "Tuesday",
        "hours": "7 AM to 11 PM"
      },
      {
        "day": "Wednesday",
        "hours": "7 AM to 11 PM"
      },
      {
        "day": "Thursday",
        "hours": "7 AM to 11 PM"
      },
      {
        "day": "Friday",
        "hours": "7 AM to 11 PM"
      },
      {
        "day": "Saturday",
        "hours": "7 AM to 11 PM"
      },
      {
        "day": "Sunday",
        "hours": "7 AM to 11 PM"
      }
    ],
    "scrapedAt": "2025-08-07T10:44:01.405Z",
    "source": "apify-google-maps",
    "district": "Cẩm An",
    "districtOrWard": "Cẩm An",
    "combinedScore": 3.6549999999999994,
    "processedAt": "2025-08-07T11:12:01.204Z",
    "dataQuality": {
      "hasPhone": true,
      "hasWebsite": true,
      "hasRating": true,
      "hasDistrict": true,
      "hasLocation": true
    }
  },
  {
    "id": "hoi-an-rooster-hoi-an-spa-sauna-for-men",
    "name": "Rooster Hoi An Spa & Sauna For Men",
    "address": "240 Lý Thái Tổ, Cẩm Sơn, Hội An, Quảng Nam 560000, Vietnam",
    "city": "Hoi An",
    "phone": "+84 559 907 023",
    "website": "http://roosterhoian.com/",
    "rating": 4.4,
    "reviewCount": 45,
    "priceLevel": null,
    "category": "Sauna",
    "description": null,
    "imageUrl": "https://lh3.googleusercontent.com/gps-cs-s/AC9h4nrAafRKpjbDVY8lY_NFyi3n-Wlov8BTP8eEaaZrGvacUZ0y-iOc9ejJng-McuDgdCw13eFnojQ53TKU1c75apfQtuBr4wBwyVgNOpMgX06-bQ8O8lNCu2ODmSiYpIcIhQjl_zkr=w408-h612-k-no",
    "location": {
      "lat": 15.8898558,
      "lng": 108.3277639
    },
    "hours": [
      {
        "day": "Monday",
        "hours": "2 to 10 PM"
      },
      {
        "day": "Tuesday",
        "hours": "2 to 10:30 PM"
      },
      {
        "day": "Wednesday",
        "hours": "2 to 10:30 PM"
      },
      {
        "day": "Thursday",
        "hours": "2 to 10:30 PM"
      },
      {
        "day": "Friday",
        "hours": "2 to 10:30 PM"
      },
      {
        "day": "Saturday",
        "hours": "2 to 10:30 PM"
      },
      {
        "day": "Sunday",
        "hours": "2 to 10:30 PM"
      }
    ],
    "scrapedAt": "2025-08-07T10:44:01.405Z",
    "source": "apify-google-maps",
    "district": "Hội An",
    "districtOrWard": "Hội An",
    "combinedScore": 3.755,
    "processedAt": "2025-08-07T11:12:01.204Z",
    "dataQuality": {
      "hasPhone": true,
      "hasWebsite": true,
      "hasRating": true,
      "hasDistrict": true,
      "hasLocation": true
    }
  },
  {
    "id": "hoi-an-spa-massage-lc-hng",
    "name": "Spa Massage Lộc Hồng",
    "address": "63 Lạc Long Quân, Cẩm An, Hội An, Quảng Nam, Vietnam",
    "city": "Hoi An",
    "phone": "+84 932 441 789",
    "website": null,
    "rating": 4.1,
    "reviewCount": 22,
    "priceLevel": null,
    "category": "Spa",
    "description": null,
    "imageUrl": "https://lh3.googleusercontent.com/gps-cs-s/AC9h4np1J0MXdFMIe6dslSTVyUOYqtMmhNPBrzMiENeD55FU18iV20BwhT5e_yedt4likU3yv0QjSop8hKxP55XJvt8ogWvSsPs7s7iibgPFhT2JMM9dMMZelGzy7D0x7NiejBoNXBI=w408-h305-k-no",
    "location": {
      "lat": 15.8994105,
      "lng": 108.358423
    },
    "hours": [],
    "scrapedAt": "2025-08-07T10:44:01.405Z",
    "source": "apify-google-maps",
    "district": "Cẩm An",
    "districtOrWard": "Cẩm An",
    "combinedScore": 3.1999999999999993,
    "processedAt": "2025-08-07T11:12:01.204Z",
    "dataQuality": {
      "hasPhone": true,
      "hasWebsite": false,
      "hasRating": true,
      "hasDistrict": true,
      "hasLocation": true
    }
  },
  {
    "id": "hoi-an-massage-thin-ng",
    "name": "Massage Thiên Đường",
    "address": "266 An Dương Vương, Phường, Điện Bàn Đông, Đà Nẵng 550000, Vietnam",
    "city": "Hoi An",
    "phone": "+84 905 216 379",
    "website": null,
    "rating": 5,
    "reviewCount": 1,
    "priceLevel": null,
    "category": "Massage spa",
    "description": null,
    "imageUrl": "https://streetviewpixels-pa.googleapis.com/v1/thumbnail?panoid=eSi-qx-DlTgwb3lmZrpzzA&cb_client=search.gws-prod.gps&w=408&h=240&yaw=293.0097&pitch=0&thumbfov=100",
    "location": {
      "lat": 15.8901457,
      "lng": 108.2921921
    },
    "hours": [
      {
        "day": "Monday",
        "hours": "11:30 AM to 1:30 AM"
      },
      {
        "day": "Tuesday",
        "hours": "11:30 AM to 1:30 AM"
      },
      {
        "day": "Wednesday",
        "hours": "11:30 AM to 1:30 AM"
      },
      {
        "day": "Thursday",
        "hours": "11:30 AM to 1:30 AM"
      },
      {
        "day": "Friday",
        "hours": "11:30 AM to 1:30 AM"
      },
      {
        "day": "Saturday",
        "hours": "11:30 AM to 1:30 AM"
      },
      {
        "day": "Sunday",
        "hours": "11:30 AM to 1:30 AM"
      }
    ],
    "scrapedAt": "2025-08-07T10:44:01.405Z",
    "source": "apify-google-maps",
    "district": "Hội An",
    "districtOrWard": "Hội An",
    "combinedScore": 3.5149999999999997,
    "processedAt": "2025-08-07T11:12:01.205Z",
    "dataQuality": {
      "hasPhone": true,
      "hasWebsite": false,
      "hasRating": true,
      "hasDistrict": true,
      "hasLocation": true
    }
  },
  {
    "id": "hoi-an-massage-tm-qut-khim-th-long-mn",
    "name": "Massage tẩm quất khiếm thị long mẫn",
    "address": "153B Tôn Đức Thắng, Street, Hội An, Quảng Nam, Vietnam",
    "city": "Hoi An",
    "phone": "+84 936 841 662",
    "website": null,
    "rating": 5,
    "reviewCount": 17,
    "priceLevel": null,
    "category": "Massage spa",
    "description": null,
    "imageUrl": "https://lh3.googleusercontent.com/p/AF1QipOaEbNhC0HY9BBaPhKgvV0e2-6fjfKtM7qpxUZb=w408-h544-k-no",
    "location": {
      "lat": 15.8903379,
      "lng": 108.3240242
    },
    "hours": [
      {
        "day": "Monday",
        "hours": "8 AM to 10 PM"
      },
      {
        "day": "Tuesday",
        "hours": "8 AM to 10:30 PM"
      },
      {
        "day": "Wednesday",
        "hours": "8 AM to 10 PM"
      },
      {
        "day": "Thursday",
        "hours": "8 AM to 10 PM"
      },
      {
        "day": "Friday",
        "hours": "8 AM to 10 PM"
      },
      {
        "day": "Saturday",
        "hours": "12 AM to 10 PM"
      },
      {
        "day": "Sunday",
        "hours": "8 AM to 10 PM"
      }
    ],
    "scrapedAt": "2025-08-07T10:44:01.405Z",
    "source": "apify-google-maps",
    "district": "Hội An",
    "districtOrWard": "Hội An",
    "combinedScore": 3.755,
    "processedAt": "2025-08-07T11:12:01.205Z",
    "dataQuality": {
      "hasPhone": true,
      "hasWebsite": false,
      "hasRating": true,
      "hasDistrict": true,
      "hasLocation": true
    }
  },
  {
    "id": "hoi-an-ht-spa-massage-foot-body",
    "name": "HT SPA MASSAGE FOOT & BODY",
    "address": "13 Cao Thắng, Cẩm Sơn, Hội An, Quảng Nam, Vietnam",
    "city": "Hoi An",
    "phone": null,
    "website": null,
    "rating": 5,
    "reviewCount": 3,
    "priceLevel": null,
    "category": "Massage spa",
    "description": null,
    "imageUrl": "https://lh3.googleusercontent.com/gps-cs-s/AC9h4nrn1aXXg3mv6UEprrnabZ4U0ABAG5DcnIAgfAagnbB9uaY4VfyHrX0OvzGEAo3kpKIg_vtrce_0DGMThwnj49NoXeCk8M1WFXoc4cIUqkcG3Uh98bY_2IgFbAO4J-RhgMHkLDNVbA=w408-h544-k-no",
    "location": {
      "lat": 15.8878289,
      "lng": 108.3291718
    },
    "hours": [],
    "scrapedAt": "2025-08-07T10:44:01.405Z",
    "source": "apify-google-maps",
    "district": "Hội An",
    "districtOrWard": "Hội An",
    "combinedScore": 3.545,
    "processedAt": "2025-08-07T11:12:01.205Z",
    "dataQuality": {
      "hasPhone": false,
      "hasWebsite": false,
      "hasRating": true,
      "hasDistrict": true,
      "hasLocation": true
    }
  },
  {
    "id": "hoi-an-c-s-massage-ngi-khim-th-qunh-thu",
    "name": "Cơ sở massage người khiếm thị - Quỳnh Thu",
    "address": "15 Chu Văn An, Tân An, Hội An, Quảng Nam, Vietnam",
    "city": "Hoi An",
    "phone": "+84 937 507 253",
    "website": null,
    "rating": 4.6,
    "reviewCount": 36,
    "priceLevel": null,
    "category": "Massage spa",
    "description": null,
    "imageUrl": "https://lh3.googleusercontent.com/p/AF1QipPMW0ePn-VmmGp2vo8FxhH8Xw1jPT9_jgvp9xfm=w408-h306-k-no",
    "location": {
      "lat": 15.888708,
      "lng": 108.325399
    },
    "hours": [
      {
        "day": "Monday",
        "hours": "8 AM to 10 PM"
      },
      {
        "day": "Tuesday",
        "hours": "8 AM to 10 PM"
      },
      {
        "day": "Wednesday",
        "hours": "8 AM to 10 PM"
      },
      {
        "day": "Thursday",
        "hours": "8 AM to 10 PM"
      },
      {
        "day": "Friday",
        "hours": "8 AM to 10 PM"
      },
      {
        "day": "Saturday",
        "hours": "8 AM to 10 PM"
      },
      {
        "day": "Sunday",
        "hours": "8 AM to 10 PM"
      }
    ],
    "scrapedAt": "2025-08-07T10:44:01.405Z",
    "source": "apify-google-maps",
    "district": "Tân An",
    "districtOrWard": "Tân An",
    "combinedScore": 3.7599999999999993,
    "processedAt": "2025-08-07T11:12:01.205Z",
    "dataQuality": {
      "hasPhone": true,
      "hasWebsite": false,
      "hasRating": true,
      "hasDistrict": true,
      "hasLocation": true
    }
  },
  {
    "id": "hoi-an-herbal-spa-an-bang-beach-the-best-massage-an-bang-beach-hot-deal-250k-free-pick-up-drop-off-in-hi-an",
    "name": "Herbal spa An Bang Beach - The best massage An Bang beach - Hot deal 250k - Free pick up & drop off in Hội An",
    "address": "150 Nguyễn Phan Vinh, Cẩm An, Hội An, Quảng Nam 56000, Vietnam",
    "city": "Hoi An",
    "phone": "+84 905 025 708",
    "website": null,
    "rating": 5,
    "reviewCount": 6,
    "priceLevel": null,
    "category": "Spa",
    "description": null,
    "imageUrl": "https://lh3.googleusercontent.com/p/AF1QipM1WyfFxt_PFQTY1iUVpZ1-boL9E3jJGvIgBTZ_=w408-h272-k-no",
    "location": {
      "lat": 15.9136826,
      "lng": 108.3372883
    },
    "hours": [
      {
        "day": "Monday",
        "hours": "7 AM to 8 PM"
      },
      {
        "day": "Tuesday",
        "hours": "7 AM to 8 PM"
      },
      {
        "day": "Wednesday",
        "hours": "7 AM to 8 PM"
      },
      {
        "day": "Thursday",
        "hours": "7 AM to 8 PM"
      },
      {
        "day": "Friday",
        "hours": "7 AM to 8 PM"
      },
      {
        "day": "Saturday",
        "hours": "7 AM to 8:30 PM"
      },
      {
        "day": "Sunday",
        "hours": "7 AM to 8 PM"
      }
    ],
    "scrapedAt": "2025-08-07T10:44:01.405Z",
    "source": "apify-google-maps",
    "district": "Cẩm An",
    "districtOrWard": "Cẩm An",
    "combinedScore": 3.59,
    "processedAt": "2025-08-07T11:12:01.205Z",
    "dataQuality": {
      "hasPhone": true,
      "hasWebsite": false,
      "hasRating": true,
      "hasDistrict": true,
      "hasLocation": true
    }
  },
  {
    "id": "hoi-an-vy-phng-gi-u-dng-sinh-ng-y-massage",
    "name": "Vy Phương - Gội Đầu Dưỡng Sinh Đông Y & Massage",
    "address": "161 Lý Thái Tổ, Cẩm Sơn, Hội An, Quảng Nam, Vietnam",
    "city": "Hoi An",
    "phone": "+84 905 788 155",
    "website": null,
    "rating": 4.9,
    "reviewCount": 133,
    "priceLevel": null,
    "category": "Health spa",
    "description": null,
    "imageUrl": "https://lh3.googleusercontent.com/p/AF1QipM4Lj5qaYsxF45-umgq-kOdaxiDP5bnvrt__GEn=w408-h544-k-no",
    "location": {
      "lat": 15.8876594,
      "lng": 108.3308455
    },
    "hours": [
      {
        "day": "Monday",
        "hours": "9 AM to 9 PM"
      },
      {
        "day": "Tuesday",
        "hours": "9 AM to 9 PM"
      },
      {
        "day": "Wednesday",
        "hours": "9 AM to 9 PM"
      },
      {
        "day": "Thursday",
        "hours": "9 AM to 9 PM"
      },
      {
        "day": "Friday",
        "hours": "9 AM to 9 PM"
      },
      {
        "day": "Saturday",
        "hours": "9 AM to 9 PM"
      },
      {
        "day": "Sunday",
        "hours": "9 AM to 7 PM"
      }
    ],
    "scrapedAt": "2025-08-07T10:44:01.405Z",
    "source": "apify-google-maps",
    "district": "Hội An",
    "districtOrWard": "Hội An",
    "combinedScore": 4.93,
    "processedAt": "2025-08-07T11:12:01.205Z",
    "dataQuality": {
      "hasPhone": true,
      "hasWebsite": false,
      "hasRating": true,
      "hasDistrict": true,
      "hasLocation": true
    }
  },
  {
    "id": "hoi-an-shampoo-and-massage-sang-sang-2",
    "name": "Shampoo and Massage Sang Sang 2",
    "address": "15 Phan Đình Phùng, Cẩm Sơn, Hội An, Quảng Nam, Vietnam",
    "city": "Hoi An",
    "phone": "+84 914 790 505",
    "website": "http://sangsangspa.changedigital.com.vn/en/?zarsrc=30&utm_source=zalo&utm_medium=zalo&utm_campaign=zalo&gidzl=0xvnCZs9MHe0fdSrFf1S7mEbSJOWabyNIALtR7sMN1OHft1lVyGDG1VtT6aZa0z57QKeQpOD0HyOFOvU6m#0",
    "rating": 4.4,
    "reviewCount": 12,
    "priceLevel": null,
    "category": "Spa",
    "description": null,
    "imageUrl": "https://lh3.googleusercontent.com/p/AF1QipNz-hYR7mYk2M3OSV8-oNCS4Ib4FQjvXXbXHdI_=w408-h306-k-no",
    "location": {
      "lat": 15.888776,
      "lng": 108.3302569
    },
    "hours": [
      {
        "day": "Monday",
        "hours": "8:30 AM to 11:30 PM"
      },
      {
        "day": "Tuesday",
        "hours": "8:30 AM to 11:30 PM"
      },
      {
        "day": "Wednesday",
        "hours": "8:30 AM to 11:30 PM"
      },
      {
        "day": "Thursday",
        "hours": "8:30 AM to 11:30 PM"
      },
      {
        "day": "Friday",
        "hours": "8:30 AM to 11:30 PM"
      },
      {
        "day": "Saturday",
        "hours": "8:30 AM to 11:30 PM"
      },
      {
        "day": "Sunday",
        "hours": "8:30 AM to 11:30 PM"
      }
    ],
    "scrapedAt": "2025-08-07T10:44:01.405Z",
    "source": "apify-google-maps",
    "district": "Unknown",
    "districtOrWard": "Unknown",
    "combinedScore": 3.2600000000000002,
    "processedAt": "2025-08-07T11:12:01.205Z",
    "dataQuality": {
      "hasPhone": true,
      "hasWebsite": true,
      "hasRating": true,
      "hasDistrict": true,
      "hasLocation": true
    }
  },
  {
    "id": "hoi-an-the-healing-pearl-xng-hi-massage",
    "name": "The Healing Pearl xông hơi massage",
    "address": "W89J+W2C, Lạc Long Quân, Điện Dương, Hội An, Quảng Nam, Vietnam",
    "city": "Hoi An",
    "phone": "+84 934 782 509",
    "website": null,
    "rating": 3.6,
    "reviewCount": 11,
    "priceLevel": null,
    "category": "Spa",
    "description": null,
    "imageUrl": "https://lh3.googleusercontent.com/gps-cs-s/AC9h4nqMxMUFJBNa516LHvpB8HEojBmcyPp1OPp9bL-hB6lRcvCMYtw1SEI6suPuCLcIbl-sxuXZXp5QRjTZhyPy25fiEGGESPKPjkksOkMw4XHqx_nvDvbGNjpF4SrFqKhc7NxoJ__i2A=w408-h306-k-no",
    "location": {
      "lat": 15.9198228,
      "lng": 108.3300126
    },
    "hours": [],
    "scrapedAt": "2025-08-07T10:44:01.405Z",
    "source": "apify-google-maps",
    "district": "Hội An",
    "districtOrWard": "Hội An",
    "combinedScore": 2.685,
    "processedAt": "2025-08-07T11:12:01.205Z",
    "dataQuality": {
      "hasPhone": true,
      "hasWebsite": false,
      "hasRating": true,
      "hasDistrict": true,
      "hasLocation": true
    }
  },
  {
    "id": "hoi-an-epiphany-spa-gi-u-dng-sinh-massage-tr-liu",
    "name": "Epiphany Spa - Gội đầu dưỡng sinh & Massage trị liệu",
    "address": "V9P5+3PG, Võng Nhi 1, Cẩm Thanh, Hội An, Quảng Nam, Vietnam",
    "city": "Hoi An",
    "phone": "+84 235 2936 999",
    "website": "https://moodhoian.vn/mood-to-spa",
    "rating": null,
    "reviewCount": 0,
    "priceLevel": null,
    "category": "Spa",
    "description": null,
    "imageUrl": "https://lh3.googleusercontent.com/gps-cs-s/AC9h4nokipAXCIJ8tFe9K8VZHs5Cj9oPrzPppIpIp3PYNQWZ_t7YH8L4VVYqf4sIq88_NbSFn45HouYojfWn3P5-9dB1vpKx9lIb7zdFslpgCFPEb7OVRxsaOhDza0KaeYy8ByjI9LwwgQ=w408-h408-k-no",
    "location": {
      "lat": 15.8851759,
      "lng": 108.3593296
    },
    "hours": [
      {
        "day": "Monday",
        "hours": "Open 24 hours"
      },
      {
        "day": "Tuesday",
        "hours": "Open 24 hours"
      },
      {
        "day": "Wednesday",
        "hours": "Open 24 hours"
      },
      {
        "day": "Thursday",
        "hours": "Open 24 hours"
      },
      {
        "day": "Friday",
        "hours": "Open 24 hours"
      },
      {
        "day": "Saturday",
        "hours": "Open 24 hours"
      },
      {
        "day": "Sunday",
        "hours": "Open 24 hours"
      }
    ],
    "scrapedAt": "2025-08-07T10:44:01.405Z",
    "source": "apify-google-maps",
    "district": "Cẩm Thanh",
    "districtOrWard": "Cẩm Thanh",
    "combinedScore": 0,
    "processedAt": "2025-08-07T11:12:01.205Z",
    "dataQuality": {
      "hasPhone": true,
      "hasWebsite": true,
      "hasRating": false,
      "hasDistrict": true,
      "hasLocation": true
    }
  },
  {
    "id": "hoi-an-villa-de-spa-hoi-an-massage-hoi-an",
    "name": "Villa de Spa Hoi An - Massage Hoi An - 스파 호이안 - 호이안 마사지 - 按摩 会安- ホイアンのマッサージ",
    "address": "26 Nguyễn Du, Phường Minh An, Hội An, Quảng Nam, Vietnam",
    "city": "Hoi An",
    "phone": "+84 706 012 250",
    "website": "https://villadespahoian.net/",
    "rating": 4.7,
    "reviewCount": 756,
    "priceLevel": null,
    "category": "Massage spa",
    "description": null,
    "imageUrl": "https://lh3.googleusercontent.com/p/AF1QipPnqWRoxTA0OUnF0rBQlZRt8p-TOmMDX6ueuLdE=w408-h544-k-no",
    "location": {
      "lat": 15.8764648,
      "lng": 108.3209772
    },
    "hours": [
      {
        "day": "Monday",
        "hours": "10:30 AM to 10:30 PM"
      },
      {
        "day": "Tuesday",
        "hours": "10:30 AM to 10:30 PM"
      },
      {
        "day": "Wednesday",
        "hours": "10:30 AM to 10:30 PM"
      },
      {
        "day": "Thursday",
        "hours": "10:30 AM to 10:30 PM"
      },
      {
        "day": "Friday",
        "hours": "10:30 AM to 10:30 PM"
      },
      {
        "day": "Saturday",
        "hours": "10:30 AM to 10:30 PM"
      },
      {
        "day": "Sunday",
        "hours": "10:30 AM to 10:30 PM"
      }
    ],
    "scrapedAt": "2025-08-07T10:44:01.405Z",
    "source": "apify-google-maps",
    "district": "Minh An",
    "districtOrWard": "Minh An",
    "combinedScore": 4.79,
    "processedAt": "2025-08-07T11:12:01.205Z",
    "dataQuality": {
      "hasPhone": true,
      "hasWebsite": true,
      "hasRating": true,
      "hasDistrict": true,
      "hasLocation": true
    }
  },
  {
    "id": "hoi-an-habana-spa-massage-nail",
    "name": "Habana Spa Massage & Nail 会安按摩指甲洗发水 - 최고의 스파 호이안",
    "address": "72 Đào Duy Từ, Phường Cẩm Phổ, Hội An, Quảng Nam 51000, Vietnam",
    "city": "Hoi An",
    "phone": "+84 905 107 792",
    "website": null,
    "rating": 5,
    "reviewCount": 1916,
    "priceLevel": null,
    "category": "Massage spa",
    "description": null,
    "imageUrl": "https://lh3.googleusercontent.com/p/AF1QipNfvroB8xEONGmQdIXc-F9ABELbR_Rm77KqjAYG=w408-h521-k-no",
    "location": {
      "lat": 15.8770831,
      "lng": 108.3200494
    },
    "hours": [
      {
        "day": "Monday",
        "hours": "8 AM to 11 PM"
      },
      {
        "day": "Tuesday",
        "hours": "8 AM to 11 PM"
      },
      {
        "day": "Wednesday",
        "hours": "8 AM to 11 PM"
      },
      {
        "day": "Thursday",
        "hours": "8 AM to 11 PM"
      },
      {
        "day": "Friday",
        "hours": "8 AM to 11 PM"
      },
      {
        "day": "Saturday",
        "hours": "8 AM to 11 PM"
      },
      {
        "day": "Sunday",
        "hours": "8 AM to 11 PM"
      }
    ],
    "scrapedAt": "2025-08-07T10:44:01.405Z",
    "source": "apify-google-maps",
    "district": "Cẩm Phô",
    "districtOrWard": "Cẩm Phô",
    "combinedScore": 5,
    "processedAt": "2025-08-07T11:12:01.205Z",
    "dataQuality": {
      "hasPhone": true,
      "hasWebsite": false,
      "hasRating": true,
      "hasDistrict": true,
      "hasLocation": true
    }
  },
  {
    "id": "hoi-an-tropical-foot-body-massage",
    "name": "TROPICAL FOOT & BODY MASSAGE",
    "address": "10/1B Nguyễn Thị Minh Khai, Phường Minh An, Hội An, Quảng Nam, Vietnam",
    "city": "Hoi An",
    "phone": "+84 382 546 879",
    "website": "https://www.facebook.com/lamervietnam",
    "rating": 4.8,
    "reviewCount": 153,
    "priceLevel": null,
    "category": "Massage spa",
    "description": null,
    "imageUrl": "https://lh3.googleusercontent.com/p/AF1QipP7QOMQCezkIeenuIIC_HNL_QhyZxJw4p7sw0XY=w408-h295-k-no",
    "location": {
      "lat": 15.8774767,
      "lng": 108.3255139
    },
    "hours": [
      {
        "day": "Monday",
        "hours": "1 to 9 PM"
      },
      {
        "day": "Tuesday",
        "hours": "12:30 to 9 PM"
      },
      {
        "day": "Wednesday",
        "hours": "12:30 to 9 PM"
      },
      {
        "day": "Thursday",
        "hours": "12:30 to 9 PM"
      },
      {
        "day": "Friday",
        "hours": "12:30 to 9 PM"
      },
      {
        "day": "Saturday",
        "hours": "12:30 to 9 PM"
      },
      {
        "day": "Sunday",
        "hours": "12:30 to 9 PM"
      }
    ],
    "scrapedAt": "2025-08-07T10:44:01.405Z",
    "source": "apify-google-maps",
    "district": "Minh An",
    "districtOrWard": "Minh An",
    "combinedScore": 4.859999999999999,
    "processedAt": "2025-08-07T11:12:01.205Z",
    "dataQuality": {
      "hasPhone": true,
      "hasWebsite": true,
      "hasRating": true,
      "hasDistrict": true,
      "hasLocation": true
    }
  },
  {
    "id": "hoi-an-nice-massage",
    "name": "Nice massage",
    "address": "62 Nguyễn Thị Minh Khai, Phường Minh An, Hội An, Quảng Nam, Vietnam",
    "city": "Hoi An",
    "phone": null,
    "website": null,
    "rating": 4,
    "reviewCount": 8,
    "priceLevel": null,
    "category": "Massage therapist",
    "description": null,
    "imageUrl": "https://streetviewpixels-pa.googleapis.com/v1/thumbnail?panoid=uSEV2iiOqfEJq37g4z8PcQ&cb_client=search.gws-prod.gps&w=408&h=240&yaw=263.54703&pitch=0&thumbfov=100",
    "location": {
      "lat": 15.8780503,
      "lng": 108.3246388
    },
    "hours": [],
    "scrapedAt": "2025-08-07T10:44:01.405Z",
    "source": "apify-google-maps",
    "district": "Minh An",
    "districtOrWard": "Minh An",
    "combinedScore": 2.92,
    "processedAt": "2025-08-07T11:12:01.205Z",
    "dataQuality": {
      "hasPhone": false,
      "hasWebsite": false,
      "hasRating": true,
      "hasDistrict": true,
      "hasLocation": true
    }
  },
  {
    "id": "hoi-an-magnolia-spa-massage",
    "name": "Magnolia Spa & Massage",
    "address": "100 Đ. Phan Chu Trinh, Phường Minh An, Hội An, Quảng Nam 51000, Vietnam",
    "city": "Hoi An",
    "phone": "+84 769 916 800",
    "website": null,
    "rating": 4.7,
    "reviewCount": 43,
    "priceLevel": null,
    "category": "Massage spa",
    "description": null,
    "imageUrl": "https://lh3.googleusercontent.com/p/AF1QipPE_1x_m2liMAbAvwnC-nIpze8WYlbA7IAtD_c7=w408-h306-k-no",
    "location": {
      "lat": 15.8786336,
      "lng": 108.3239632
    },
    "hours": [
      {
        "day": "Monday",
        "hours": "8 AM to 10 PM"
      },
      {
        "day": "Tuesday",
        "hours": "8 AM to 10 PM"
      },
      {
        "day": "Wednesday",
        "hours": "8 AM to 10 PM"
      },
      {
        "day": "Thursday",
        "hours": "8 AM to 10 PM"
      },
      {
        "day": "Friday",
        "hours": "8 AM to 10 PM"
      },
      {
        "day": "Saturday",
        "hours": "8 AM to 10 PM"
      },
      {
        "day": "Sunday",
        "hours": "8 AM to 10 PM"
      }
    ],
    "scrapedAt": "2025-08-07T10:44:01.405Z",
    "source": "apify-google-maps",
    "district": "Minh An",
    "districtOrWard": "Minh An",
    "combinedScore": 3.935,
    "processedAt": "2025-08-07T11:12:01.205Z",
    "dataQuality": {
      "hasPhone": true,
      "hasWebsite": false,
      "hasRating": true,
      "hasDistrict": true,
      "hasLocation": true
    }
  },
  {
    "id": "hoi-an-latre-spa-nails-massage-hoi-an",
    "name": "Latre Spa & Nails Massage Hoi An - 스파 마사지 네일 호이안",
    "address": "242 Trần Nhân Tông, Cẩm Thanh, Hội An, Quảng Nam 560000, Vietnam",
    "city": "Hoi An",
    "phone": "+84 932 426 662",
    "website": "https://latrespahoian.my.canva.site/welcometolatrespa",
    "rating": 5,
    "reviewCount": 53,
    "priceLevel": null,
    "category": "Massage spa",
    "description": null,
    "imageUrl": "https://lh3.googleusercontent.com/p/AF1QipM8HV3H12kYuCwNPobDeWUweFcE6PINi2hcAVzb=w408-h543-k-no",
    "location": {
      "lat": 15.8762723,
      "lng": 108.3502126
    },
    "hours": [
      {
        "day": "Monday",
        "hours": "9:30 AM to 10:30 PM"
      },
      {
        "day": "Tuesday",
        "hours": "9:30 AM to 10:30 PM"
      },
      {
        "day": "Wednesday",
        "hours": "9:30 AM to 10:30 PM"
      },
      {
        "day": "Thursday",
        "hours": "9:30 AM to 10:30 PM"
      },
      {
        "day": "Friday",
        "hours": "9:30 AM to 10:30 PM"
      },
      {
        "day": "Saturday",
        "hours": "9:30 AM to 10:30 PM"
      },
      {
        "day": "Sunday",
        "hours": "9:30 AM to 10:30 PM"
      }
    ],
    "scrapedAt": "2025-08-07T10:44:01.405Z",
    "source": "apify-google-maps",
    "district": "Cẩm Thanh",
    "districtOrWard": "Cẩm Thanh",
    "combinedScore": 4.295,
    "processedAt": "2025-08-07T11:12:01.205Z",
    "dataQuality": {
      "hasPhone": true,
      "hasWebsite": true,
      "hasRating": true,
      "hasDistrict": true,
      "hasLocation": true
    }
  },
  {
    "id": "hoi-an-hng-thanh-spa-massage-nails",
    "name": "Hưng Thanh Spa Massage , Nails",
    "address": "09 Đào Duy Từ, Phường Minh An, Hội An, Quảng Nam, Vietnam",
    "city": "Hoi An",
    "phone": "+84 905 323 032",
    "website": null,
    "rating": 4.9,
    "reviewCount": 596,
    "priceLevel": null,
    "category": "Health spa",
    "description": null,
    "imageUrl": "https://lh3.googleusercontent.com/p/AF1QipMN962j-SBgW4nobJUx-pc4y1rPd0Yf2dZDloe8=w408-h585-k-no",
    "location": {
      "lat": 15.8769754,
      "lng": 108.3225041
    },
    "hours": [
      {
        "day": "Monday",
        "hours": "8:30 AM to 2 AM"
      },
      {
        "day": "Tuesday",
        "hours": "8:30 AM to 2 AM"
      },
      {
        "day": "Wednesday",
        "hours": "8:30 AM to 2 AM"
      },
      {
        "day": "Thursday",
        "hours": "8:30 AM to 2 AM"
      },
      {
        "day": "Friday",
        "hours": "8:30 AM to 2 AM"
      },
      {
        "day": "Saturday",
        "hours": "8:30 AM to 2 AM"
      },
      {
        "day": "Sunday",
        "hours": "8:30 AM to 2 AM"
      }
    ],
    "scrapedAt": "2025-08-07T10:44:01.405Z",
    "source": "apify-google-maps",
    "district": "Minh An",
    "districtOrWard": "Minh An",
    "combinedScore": 4.93,
    "processedAt": "2025-08-07T11:12:01.205Z",
    "dataQuality": {
      "hasPhone": true,
      "hasWebsite": false,
      "hasRating": true,
      "hasDistrict": true,
      "hasLocation": true
    }
  },
  {
    "id": "hoi-an-cong-spa-massage-nail",
    "name": "콩스파 호이안(cong spa massage & nail)",
    "address": "48 Đường Cao Hồng Lãnh, Phường Minh An, Hội An, Quảng Nam 560000, Vietnam",
    "city": "Hoi An",
    "phone": "+84 901 916 418",
    "website": "https://sites.google.com/view/congspamassage/trang-ch%E1%BB%A7",
    "rating": 5,
    "reviewCount": 1167,
    "priceLevel": null,
    "category": "Health spa",
    "description": null,
    "imageUrl": "https://lh3.googleusercontent.com/p/AF1QipPyikJXjydTIjlhQ_ILPnufrbEZLxfn7tXY-4K3=w408-h554-k-no",
    "location": {
      "lat": 15.8752646,
      "lng": 108.3233368
    },
    "hours": [
      {
        "day": "Monday",
        "hours": "9 AM to 11:30 PM"
      },
      {
        "day": "Tuesday",
        "hours": "9 AM to 12 AM"
      },
      {
        "day": "Wednesday",
        "hours": "9 AM to 11:30 PM"
      },
      {
        "day": "Thursday",
        "hours": "9 AM to 11:30 PM"
      },
      {
        "day": "Friday",
        "hours": "9 AM to 11:30 PM"
      },
      {
        "day": "Saturday",
        "hours": "9 AM to 11:30 PM"
      },
      {
        "day": "Sunday",
        "hours": "9 AM to 12 AM"
      }
    ],
    "scrapedAt": "2025-08-07T10:44:01.405Z",
    "source": "apify-google-maps",
    "district": "Minh An",
    "districtOrWard": "Minh An",
    "combinedScore": 5,
    "processedAt": "2025-08-07T11:12:01.205Z",
    "dataQuality": {
      "hasPhone": true,
      "hasWebsite": true,
      "hasRating": true,
      "hasDistrict": true,
      "hasLocation": true
    }
  },
  {
    "id": "hoi-an-zen-nails-and-spa-massage-hoi-an",
    "name": "Zen Nails and Spa Massage Hoi An - 지역 네일 살롱",
    "address": "13 Hoàng Diệu, Old Town, Hội An, Quảng Nam, Vietnam",
    "city": "Hoi An",
    "phone": "+84 935 753 375",
    "website": "https://www.facebook.com/zennailspahoian?mibextid=LQQJ4d",
    "rating": 4.9,
    "reviewCount": 887,
    "priceLevel": null,
    "category": "Nail salon",
    "description": null,
    "imageUrl": "https://lh3.googleusercontent.com/p/AF1QipOyxKiTnYkTz2SRc09iE87fVC0IBk28pCvFGnM2=w408-h725-k-no",
    "location": {
      "lat": 15.8779339,
      "lng": 108.3326445
    },
    "hours": [
      {
        "day": "Monday",
        "hours": "9 AM to 11 PM"
      },
      {
        "day": "Tuesday",
        "hours": "9 AM to 11 PM"
      },
      {
        "day": "Wednesday",
        "hours": "9 AM to 11 PM"
      },
      {
        "day": "Thursday",
        "hours": "9 AM to 11 PM"
      },
      {
        "day": "Friday",
        "hours": "9 AM to 11 PM"
      },
      {
        "day": "Saturday",
        "hours": "9 AM to 11 PM"
      },
      {
        "day": "Sunday",
        "hours": "9 AM to 11 PM"
      }
    ],
    "scrapedAt": "2025-08-07T10:44:01.405Z",
    "source": "apify-google-maps",
    "district": "Hội An",
    "districtOrWard": "Hội An",
    "combinedScore": 4.93,
    "processedAt": "2025-08-07T11:12:01.205Z",
    "dataQuality": {
      "hasPhone": true,
      "hasWebsite": true,
      "hasRating": true,
      "hasDistrict": true,
      "hasLocation": true
    }
  },
  {
    "id": "hoi-an-angels-touch-spa-massage",
    "name": "Angel's Touch SPA 按摩、超市、药店 Massage",
    "address": "323 Phù Đổng Thiên Vương, Cửa Đại, Hội An, Quảng Nam, Vietnam",
    "city": "Hoi An",
    "phone": "+84 778 833 997",
    "website": null,
    "rating": 4.9,
    "reviewCount": 70,
    "priceLevel": null,
    "category": "Spa",
    "description": null,
    "imageUrl": "https://lh3.googleusercontent.com/p/AF1QipN0DHwZRa6VmrDLv_W6YzTF2XpsCFrnnyQJy9km=w408-h306-k-no",
    "location": {
      "lat": 15.8895571,
      "lng": 108.3762709
    },
    "hours": [
      {
        "day": "Monday",
        "hours": "6 AM to 11:30 PM"
      },
      {
        "day": "Tuesday",
        "hours": "6 AM to 11:30 PM"
      },
      {
        "day": "Wednesday",
        "hours": "6 AM to 11:30 PM"
      },
      {
        "day": "Thursday",
        "hours": "6 AM to 11:30 PM"
      },
      {
        "day": "Friday",
        "hours": "6 AM to 11:30 PM"
      },
      {
        "day": "Saturday",
        "hours": "6 AM to 11:30 PM"
      },
      {
        "day": "Sunday",
        "hours": "6 AM to 11:30 PM"
      }
    ],
    "scrapedAt": "2025-08-07T10:44:01.405Z",
    "source": "apify-google-maps",
    "district": "Hội An",
    "districtOrWard": "Hội An",
    "combinedScore": 4.48,
    "processedAt": "2025-08-07T11:12:01.205Z",
    "dataQuality": {
      "hasPhone": true,
      "hasWebsite": false,
      "hasRating": true,
      "hasDistrict": true,
      "hasLocation": true
    }
  },
  {
    "id": "hoi-an-triu-dng-spa-massage",
    "name": "Triều Dương Spa & Massage",
    "address": "560 Cửa Đại, Cẩm Châu, Hội An, Quảng Nam, Vietnam",
    "city": "Hoi An",
    "phone": "+84 905 357 178",
    "website": null,
    "rating": 5,
    "reviewCount": 2,
    "priceLevel": null,
    "category": "Health spa",
    "description": null,
    "imageUrl": "https://lh3.googleusercontent.com/p/AF1QipMsogwdSFoW12ygnB-tz-37MCO6sO3czIojkC6L=w408-h906-k-no",
    "location": {
      "lat": 15.879959,
      "lng": 108.337212
    },
    "hours": [
      {
        "day": "Monday",
        "hours": "8:30 AM to 11 PM"
      },
      {
        "day": "Tuesday",
        "hours": "8:30 AM to 11 PM"
      },
      {
        "day": "Wednesday",
        "hours": "8:30 AM to 11 PM"
      },
      {
        "day": "Thursday",
        "hours": "8:30 AM to 11 PM"
      },
      {
        "day": "Friday",
        "hours": "8:30 AM to 11 PM"
      },
      {
        "day": "Saturday",
        "hours": "8:30 AM to 11 PM"
      },
      {
        "day": "Sunday",
        "hours": "8:30 AM to 11 PM"
      }
    ],
    "scrapedAt": "2025-08-07T10:44:01.405Z",
    "source": "apify-google-maps",
    "district": "Cẩm Châu",
    "districtOrWard": "Cẩm Châu",
    "combinedScore": 3.53,
    "processedAt": "2025-08-07T11:12:01.205Z",
    "dataQuality": {
      "hasPhone": true,
      "hasWebsite": false,
      "hasRating": true,
      "hasDistrict": true,
      "hasLocation": true
    }
  },
  {
    "id": "hoi-an-massage-men-hoi-an",
    "name": "Massage Men Hoi An",
    "address": "22/18 Lý Thường Kiệt, Sơn Phong, Hội An, Quảng Nam 560000, Vietnam",
    "city": "Hoi An",
    "phone": "+84 932 568 027",
    "website": "https://www.facebook.com/vietmenspa",
    "rating": 5,
    "reviewCount": 3,
    "priceLevel": null,
    "category": "Spa",
    "description": null,
    "imageUrl": "https://lh3.googleusercontent.com/p/AF1QipOmyFsoYrdVxVZKYzkIJSBO6a259AN2eTKe1KcE=w408-h296-k-no",
    "location": {
      "lat": 15.882448,
      "lng": 108.3316348
    },
    "hours": [
      {
        "day": "Monday",
        "hours": "Open 24 hours"
      },
      {
        "day": "Tuesday",
        "hours": "Open 24 hours"
      },
      {
        "day": "Wednesday",
        "hours": "Open 24 hours"
      },
      {
        "day": "Thursday",
        "hours": "Open 24 hours"
      },
      {
        "day": "Friday",
        "hours": "Open 24 hours"
      },
      {
        "day": "Saturday",
        "hours": "Open 24 hours"
      },
      {
        "day": "Sunday",
        "hours": "Open 24 hours"
      }
    ],
    "scrapedAt": "2025-08-07T10:44:01.405Z",
    "source": "apify-google-maps",
    "district": "Sơn Phong",
    "districtOrWard": "Sơn Phong",
    "combinedScore": 3.545,
    "processedAt": "2025-08-07T11:12:01.205Z",
    "dataQuality": {
      "hasPhone": true,
      "hasWebsite": true,
      "hasRating": true,
      "hasDistrict": true,
      "hasLocation": true
    }
  },
  {
    "id": "hoi-an-thuy-ella-spa-eyebrows-beauty-spa",
    "name": "Thuy Ella Spa (Eyebrows & beauty spa)",
    "address": "52 Phan Đình Phùng, Sơn Phong, Hội An, Quảng Nam, Vietnam",
    "city": "Hoi An",
    "phone": "+84 905 003 637",
    "website": null,
    "rating": 5,
    "reviewCount": 3,
    "priceLevel": null,
    "category": "Beauty salon",
    "description": null,
    "imageUrl": "https://lh3.googleusercontent.com/gps-cs-s/AC9h4nrfMrdEUPGts1XBszkHo29Z9Vl9MoRe3ZHZvwROcq25ejt2qwEeaLn7Y2mm3yfje8kNtldHh-dLm1kJfe86r5a3VLJekm7wmWDztR9hbmAY5XiUHbDqTWNrshhhGXF5P1AbuKIn=w507-h240-k-no",
    "location": {
      "lat": 15.8864779,
      "lng": 108.3289149
    },
    "hours": [
      {
        "day": "Monday",
        "hours": "8 AM to 9 PM"
      },
      {
        "day": "Tuesday",
        "hours": "8 AM to 9 PM"
      },
      {
        "day": "Wednesday",
        "hours": "8 AM to 9 PM"
      },
      {
        "day": "Thursday",
        "hours": "8 AM to 9 PM"
      },
      {
        "day": "Friday",
        "hours": "8 AM to 9 PM"
      },
      {
        "day": "Saturday",
        "hours": "8 AM to 9 PM"
      },
      {
        "day": "Sunday",
        "hours": "8 AM to 9 PM"
      }
    ],
    "scrapedAt": "2025-08-07T10:44:01.405Z",
    "source": "apify-google-maps",
    "district": "Sơn Phong",
    "districtOrWard": "Sơn Phong",
    "combinedScore": 3.545,
    "processedAt": "2025-08-07T11:12:01.205Z",
    "dataQuality": {
      "hasPhone": true,
      "hasWebsite": false,
      "hasRating": true,
      "hasDistrict": true,
      "hasLocation": true
    }
  },
  {
    "id": "hoi-an-thai-nguyet-spa-massage-tattoo",
    "name": "Thai Nguyet Spa, Massage & Tattoo | 스파 & 마사지 | 水療和按摩",
    "address": "316 Hùng Vương, Thanh Hà, Hội An, Quảng Nam 560000, Vietnam",
    "city": "Hoi An",
    "phone": "+84 905 504 374",
    "website": null,
    "rating": 4.9,
    "reviewCount": 7,
    "priceLevel": null,
    "category": "Spa",
    "description": null,
    "imageUrl": "https://lh3.googleusercontent.com/p/AF1QipNFxWiCQ_5wI0vgZvDNYVVzrzSEBjaGjsWwyhIP=w408-h544-k-no",
    "location": {
      "lat": 15.8793216,
      "lng": 108.3061743
    },
    "hours": [
      {
        "day": "Monday",
        "hours": "8 AM to 9 PM"
      },
      {
        "day": "Tuesday",
        "hours": "8 AM to 9 PM"
      },
      {
        "day": "Wednesday",
        "hours": "8 AM to 9 PM"
      },
      {
        "day": "Thursday",
        "hours": "8 AM to 9 PM"
      },
      {
        "day": "Friday",
        "hours": "8 AM to 9 PM"
      },
      {
        "day": "Saturday",
        "hours": "8 AM to 9 PM"
      },
      {
        "day": "Sunday",
        "hours": "8 AM to 9 PM"
      }
    ],
    "scrapedAt": "2025-08-07T10:44:01.405Z",
    "source": "apify-google-maps",
    "district": "Thanh Hà",
    "districtOrWard": "Thanh Hà",
    "combinedScore": 3.535,
    "processedAt": "2025-08-07T11:12:01.205Z",
    "dataQuality": {
      "hasPhone": true,
      "hasWebsite": false,
      "hasRating": true,
      "hasDistrict": true,
      "hasLocation": true
    }
  },
  {
    "id": "hoi-an-shampoo-and-massage-sang-sang",
    "name": "Shampoo and Massage Sang Sang",
    "address": "86 Bà Triệu, Phường Minh An, Hội An, Quảng Nam 05103, Vietnam",
    "city": "Hoi An",
    "phone": "+84 914 790 505",
    "website": null,
    "rating": 4.8,
    "reviewCount": 51,
    "priceLevel": null,
    "category": "Massage spa",
    "description": null,
    "imageUrl": "https://lh3.googleusercontent.com/p/AF1QipMUCWCvYrNq3EPTI3k-svL1CE2MHvWnXmehWHkM=w408-h544-k-no",
    "location": {
      "lat": 15.8812229,
      "lng": 108.3257646
    },
    "hours": [
      {
        "day": "Monday",
        "hours": "8:30 AM to 11:30 PM"
      },
      {
        "day": "Tuesday",
        "hours": "8:30 AM to 11:30 PM"
      },
      {
        "day": "Wednesday",
        "hours": "8:30 AM to 11:30 PM"
      },
      {
        "day": "Thursday",
        "hours": "8:30 AM to 11:30 PM"
      },
      {
        "day": "Friday",
        "hours": "8:30 AM to 11:30 PM"
      },
      {
        "day": "Saturday",
        "hours": "8:30 AM to 11:30 PM"
      },
      {
        "day": "Sunday",
        "hours": "8:30 AM to 11:30 PM"
      }
    ],
    "scrapedAt": "2025-08-07T10:44:01.405Z",
    "source": "apify-google-maps",
    "district": "Minh An",
    "districtOrWard": "Minh An",
    "combinedScore": 4.125,
    "processedAt": "2025-08-07T11:12:01.205Z",
    "dataQuality": {
      "hasPhone": true,
      "hasWebsite": false,
      "hasRating": true,
      "hasDistrict": true,
      "hasLocation": true
    }
  },
  {
    "id": "hoi-an-the-g4-spa-massage",
    "name": "The G4 spa massage",
    "address": "51/1 Đ. Phan Chu Trinh, Phường Minh An, Hội An, Quảng Nam 560000, Vietnam",
    "city": "Hoi An",
    "phone": "+84 796 785 666",
    "website": null,
    "rating": 5,
    "reviewCount": 388,
    "priceLevel": null,
    "category": "Spa",
    "description": null,
    "imageUrl": "https://lh3.googleusercontent.com/gps-cs-s/AC9h4nogS1chNgPUSzD-4RhYjJIXZL4VvfWlZUAFyZx6l30_TNKgIgbyL3Kt2TIay_QGOVTVDw3p07TUUBzZeqBKGwgClw20qZTkz-rpzMkTPnkahHKFC15OAO99o35ywVWk2T5rx58fAeRTRxk=w408-h544-k-no",
    "location": {
      "lat": 15.8781821,
      "lng": 108.3294064
    },
    "hours": [
      {
        "day": "Monday",
        "hours": "9 AM to 9:30 PM"
      },
      {
        "day": "Tuesday",
        "hours": "9 AM to 9:30 PM"
      },
      {
        "day": "Wednesday",
        "hours": "9 AM to 9:30 PM"
      },
      {
        "day": "Thursday",
        "hours": "9 AM to 9:30 PM"
      },
      {
        "day": "Friday",
        "hours": "9 AM to 9:30 PM"
      },
      {
        "day": "Saturday",
        "hours": "9 AM to 9:30 PM"
      },
      {
        "day": "Sunday",
        "hours": "9 AM to 9:30 PM"
      }
    ],
    "scrapedAt": "2025-08-07T10:44:01.405Z",
    "source": "apify-google-maps",
    "district": "Minh An",
    "districtOrWard": "Minh An",
    "combinedScore": 5,
    "processedAt": "2025-08-07T11:12:01.205Z",
    "dataQuality": {
      "hasPhone": true,
      "hasWebsite": false,
      "hasRating": true,
      "hasDistrict": true,
      "hasLocation": true
    }
  },
  {
    "id": "hoi-an-spa-hoi-an-lin-spa-250000vnd60min-massage",
    "name": "Spa Hoi An - Liên Spa 250.000vnd/60min Massage",
    "address": "12 Trần Khát Chân, Cẩm Châu, Hội An, Quảng Nam, Vietnam",
    "city": "Hoi An",
    "phone": "+84 905 967 990",
    "website": "https://www.facebook.com/lienspahoian/",
    "rating": 5,
    "reviewCount": 3,
    "priceLevel": null,
    "category": "Spa",
    "description": null,
    "imageUrl": "https://lh3.googleusercontent.com/p/AF1QipPdst2dIHDIGaayA330Wi3ezpa8hr250QwAFJ-E=w408-h544-k-no",
    "location": {
      "lat": 15.8819452,
      "lng": 108.3418502
    },
    "hours": [
      {
        "day": "Monday",
        "hours": "9 AM to 9 PM"
      },
      {
        "day": "Tuesday",
        "hours": "9 AM to 9 PM"
      },
      {
        "day": "Wednesday",
        "hours": "9 AM to 9 PM"
      },
      {
        "day": "Thursday",
        "hours": "9 AM to 9 PM"
      },
      {
        "day": "Friday",
        "hours": "9 AM to 9 PM"
      },
      {
        "day": "Saturday",
        "hours": "9 AM to 9 PM"
      },
      {
        "day": "Sunday",
        "hours": "9 AM to 9 PM"
      }
    ],
    "scrapedAt": "2025-08-07T10:44:01.405Z",
    "source": "apify-google-maps",
    "district": "Cẩm Châu",
    "districtOrWard": "Cẩm Châu",
    "combinedScore": 3.545,
    "processedAt": "2025-08-07T11:12:01.205Z",
    "dataQuality": {
      "hasPhone": true,
      "hasWebsite": true,
      "hasRating": true,
      "hasDistrict": true,
      "hasLocation": true
    }
  },
  {
    "id": "hoi-an-hot-stone-spa-massage-nail",
    "name": "Hot Stone Spa Massage & Nail (핫스톤 마사지 & 네일)",
    "address": "114 Nguyễn Phúc Tần, Phường Minh An, Hội An, Quảng Nam 51000, Vietnam",
    "city": "Hoi An",
    "phone": "+84 905 626 335",
    "website": null,
    "rating": 4.9,
    "reviewCount": 346,
    "priceLevel": null,
    "category": "Massage spa",
    "description": null,
    "imageUrl": "https://lh3.googleusercontent.com/p/AF1QipN0MizuDoqq1yfdCPa1FAxX6MECC4CUqKNSBnn8=w408-h431-k-no",
    "location": {
      "lat": 15.8747824,
      "lng": 108.3222939
    },
    "hours": [
      {
        "day": "Monday",
        "hours": "8 AM to 10:30 PM"
      },
      {
        "day": "Tuesday",
        "hours": "8 AM to 10:30 PM"
      },
      {
        "day": "Wednesday",
        "hours": "8 AM to 10:30 PM"
      },
      {
        "day": "Thursday",
        "hours": "8 AM to 10:30 PM"
      },
      {
        "day": "Friday",
        "hours": "8 AM to 10:30 PM"
      },
      {
        "day": "Saturday",
        "hours": "8 AM to 10:30 PM"
      },
      {
        "day": "Sunday",
        "hours": "8 AM to 10:30 PM"
      }
    ],
    "scrapedAt": "2025-08-07T10:44:01.405Z",
    "source": "apify-google-maps",
    "district": "Minh An",
    "districtOrWard": "Minh An",
    "combinedScore": 4.93,
    "processedAt": "2025-08-07T11:12:01.205Z",
    "dataQuality": {
      "hasPhone": true,
      "hasWebsite": false,
      "hasRating": true,
      "hasDistrict": true,
      "hasLocation": true
    }
  },
  {
    "id": "hoi-an-roujestudio-massage-and-headspa",
    "name": "Rouje.studio - Massage and Headspa",
    "address": "9/5 Đường Phan Bội Châu, Cẩm Châu, Hội An, Quảng Nam, Vietnam",
    "city": "Hoi An",
    "phone": "+84 399 930 248",
    "website": "https://www.facebook.com/share/1Ap9D26MLx/?mibextid=wwXIfr",
    "rating": 5,
    "reviewCount": 114,
    "priceLevel": null,
    "category": "Massage spa",
    "description": null,
    "imageUrl": "https://lh3.googleusercontent.com/p/AF1QipMRa-gTpdiGSdpwzkWqnPgJC6edjMX4QgheAmJv=w408-h544-k-no",
    "location": {
      "lat": 15.8771606,
      "lng": 108.3351366
    },
    "hours": [
      {
        "day": "Monday",
        "hours": "10 AM to 10 PM"
      },
      {
        "day": "Tuesday",
        "hours": "10 AM to 10 PM"
      },
      {
        "day": "Wednesday",
        "hours": "10 AM to 10 PM"
      },
      {
        "day": "Thursday",
        "hours": "10 AM to 10 PM"
      },
      {
        "day": "Friday",
        "hours": "10 AM to 10 PM"
      },
      {
        "day": "Saturday",
        "hours": "10 AM to 10 PM"
      },
      {
        "day": "Sunday",
        "hours": "10 AM to 10 PM"
      }
    ],
    "scrapedAt": "2025-08-07T10:44:01.405Z",
    "source": "apify-google-maps",
    "district": "Cẩm Châu",
    "districtOrWard": "Cẩm Châu",
    "combinedScore": 5,
    "processedAt": "2025-08-07T11:12:01.205Z",
    "dataQuality": {
      "hasPhone": true,
      "hasWebsite": true,
      "hasRating": true,
      "hasDistrict": true,
      "hasLocation": true
    }
  },
  {
    "id": "hoi-an-massagengi-mthu-hinmassage-the-blindhi-an",
    "name": "🍀Massage🍀Người Mù🍀Thu Hiền🍀Massage The Blind🍀Hội An",
    "address": "19 Trần Bình Trọng, Cẩm Châu, Hội An, Quảng Nam, Vietnam",
    "city": "Hoi An",
    "phone": "+84 981 428 713",
    "website": "https://www.facebook.com/profile.php?id=100030641899231&mibextid=ZbWKwL",
    "rating": 4.7,
    "reviewCount": 75,
    "priceLevel": null,
    "category": "Massage spa",
    "description": null,
    "imageUrl": "https://lh3.googleusercontent.com/p/AF1QipNjMPuKuNjbcoe2HRbltgITjSQZHMcWEj7nmBiF=w408-h909-k-no",
    "location": {
      "lat": 15.8827189,
      "lng": 108.3485346
    },
    "hours": [
      {
        "day": "Monday",
        "hours": "8 AM to 10 PM"
      },
      {
        "day": "Tuesday",
        "hours": "8 AM to 10 PM"
      },
      {
        "day": "Wednesday",
        "hours": "8 AM to 10 PM"
      },
      {
        "day": "Thursday",
        "hours": "8 AM to 10 PM"
      },
      {
        "day": "Friday",
        "hours": "8 AM to 10 PM"
      },
      {
        "day": "Saturday",
        "hours": "8 AM to 10 PM"
      },
      {
        "day": "Sunday",
        "hours": "8 AM to 10 PM"
      }
    ],
    "scrapedAt": "2025-08-07T10:44:01.405Z",
    "source": "apify-google-maps",
    "district": "Cẩm Châu",
    "districtOrWard": "Cẩm Châu",
    "combinedScore": 4.415,
    "processedAt": "2025-08-07T11:12:01.205Z",
    "dataQuality": {
      "hasPhone": true,
      "hasWebsite": true,
      "hasRating": true,
      "hasDistrict": true,
      "hasLocation": true
    }
  }
]